State Code,County Code,CO Units,CO Mean,State Name,County Name,City Name,NO2 Units,NO2 Mean,Ozone Units,Ozone Mean,SO2 Units,SO2 Mean,lat,lon,AQI
01,001,NA,NA,Alabama,Autauga,Prattville,NA,NA,Parts per million,0.026062288397790054,Parts per billion,8.62545297585237,32.42847,-86.443585,33.5
06,001,Parts per million,1.9090715158446092,California,Alameda,Oakland,Parts per billion,26.185315599020672,NA,NA,NA,NA,37.800484,-122.266358,57
04,003,Parts per million,1.7562771045377714,Arizona,Cochise,Sierra Vista (Garden Canon),NA,NA,Parts per million,0.026421881690628788,NA,NA,31.459861,-109.942222,109.5
09,003,NA,NA,Connecticut,Hartford,Hartford,Parts per billion,28.796431061403506,NA,NA,NA,NA,41.761210999999996,-72.678426,42
04,005,Parts per million,1.5037709115456237,Arizona,Coconino,Flagstaff,NA,NA,Parts per million,0.028826427599886652,NA,NA,35.213889,-111.61250000000001,17
08,005,NA,NA,Colorado,Arapahoe,Aurora,Parts per billion,21.39218937357052,NA,NA,NA,NA,39.71721,-104.84192,23
10,005,NA,NA,Delaware,Sussex,Seaford,NA,NA,NA,NA,Parts per billion,9.38832032566384,38.651225,-75.61270499999999,0
04,007,NA,NA,Arizona,Gila,Miami,NA,NA,NA,NA,Parts per billion,14.170742340204823,33.410000000000004,-110.846944,0
06,007,Parts per million,0.9889455011924417,California,Butte,Not in a city,Parts per billion,26.388101199864497,Parts per million,0.02512338628370457,NA,NA,39.757371,-121.843286,17
09,009,Parts per million,0.9396959424703891,Connecticut,New Haven,New Haven,NA,NA,NA,NA,NA,NA,41.311546,-72.97618133333333,58
25,009,NA,NA,Massachusetts,Essex,Lawrence,Parts per billion,21.708333500000002,NA,NA,NA,NA,42.713147,-71.120335,25
04,011,NA,NA,Arizona,Greenlee,Not in a city,NA,NA,Parts per million,0.02866077592458303,NA,NA,33.3924805,-109.2468415,79
12,011,Parts per million,1.654710483421432,Florida,Broward,Not in a city,NA,NA,NA,NA,NA,NA,26.086477,-80.20282499999999,NaN
34,011,NA,NA,New Jersey,Cumberland,Vineland,Parts per billion,21.988583403936268,NA,NA,NA,NA,39.492338,-75.020453,113
04,013,Parts per million,1.5468544254127359,Arizona,Maricopa,Phoenix,NA,NA,Parts per million,0.02540037184948527,NA,NA,33.4316465,-112.06031300000001,38.666666666666664
21,015,NA,NA,Kentucky,Boone,Not in a city,Parts per billion,9.036938627320955,Parts per million,0.028717960588235295,NA,NA,38.985721999999996,-84.86740499999999,48.333333333333336
33,015,Parts per million,1.1030702695086705,New Hampshire,Rockingham,Portsmouth,NA,NA,NA,NA,NA,NA,43.075644,-70.759776,NaN
06,017,Parts per million,1.630022125188253,California,El Dorado,South Lake Tahoe,Parts per billion,18.914944513372472,NA,NA,Parts per billion,7.619999350009047,38.929075,-119.98018099999999,48.333333333333336
04,019,Parts per million,1.34343030195617,Arizona,Pima,Tucson,Parts per billion,24.913904826627956,Parts per million,0.030154139120756814,NA,NA,32.302047,-111.916067,28
02,020,Parts per million,1.9497657831858406,Alaska,Anchorage,Anchorage,NA,NA,NA,NA,NA,NA,61.219031,-149.898456,0
04,021,NA,NA,Arizona,Pinal,San Manuel,NA,NA,NA,NA,Parts per billion,7.45308031779476,32.598611,-110.633611,0
06,021,NA,NA,California,Glenn,Willows,NA,NA,Parts per million,0.029764163628999595,NA,NA,39.520993,-122.209705,20
25,021,Parts per million,1.4441895913461538,Massachusetts,Norfolk,Quincy,NA,NA,NA,NA,NA,NA,42.244544,-70.971436,NaN
42,021,NA,NA,Pennsylvania,Cambria,Johnstown,Parts per billion,15.277275163636363,NA,NA,NA,NA,40.309722,-78.915,48
26,023,NA,NA,Michigan,Branch,Coldwater,NA,NA,NA,NA,Parts per billion,16.799740556221888,41.932826,-84.989966,0
30,023,NA,NA,Montana,Deer Lodge,Anaconda-Deer Lodge County,NA,NA,Parts per million,0.028902166507177033,NA,NA,46.125172,-112.94368,24
34,023,Parts per million,2.5876048651362984,New Jersey,Middlesex,Perth Amboy,NA,NA,NA,NA,NA,NA,40.4955455,-74.35425599999999,52
04,025,Parts per million,2.6549975619402986,Arizona,Yavapai,Prescott,NA,NA,NA,NA,NA,NA,34.558611,-112.4825,NaN
06,025,NA,NA,California,Imperial,Brawley,NA,NA,Parts per million,0.032372298507462684,NA,NA,33.019211,-115.540266,46
24,025,NA,NA,Maryland,Harford,Not in a city,Parts per billion,24.634627897435898,NA,NA,NA,NA,39.62705,-76.32912499999999,12
25,025,NA,NA,Massachusetts,Suffolk,Boston,NA,NA,NA,NA,Parts per billion,7.912641466666667,42.348873,-71.097163,37
04,027,Parts per million,1.7731638285835813,Arizona,Yuma,Yuma,NA,NA,Parts per million,0.02892975419847328,NA,NA,32.700509,-114.622669,28
18,027,NA,NA,Indiana,Daviess,Not in a city,NA,NA,NA,NA,Parts per billion,11.986140997489015,38.803103,-87.216124,69
25,027,NA,NA,Massachusetts,Worcester,Worcester,Parts per billion,21.42966167005076,NA,NA,NA,NA,42.258704,-71.800072,47
06,029,Parts per million,1.5581864560856864,California,Kern,Bakersfield,Parts per billion,27.314480384894697,Parts per million,0.02607652050816697,Parts per billion,13.829934186607877,35.374959,-119.022602,28.666666666666668
06,031,NA,NA,California,Kings,Hanford,NA,NA,Parts per million,0.023311052480916028,NA,NA,36.282171999999996,-119.645128,11
08,031,Parts per million,1.9945205147590934,Colorado,Denver,Denver,Parts per billion,32.51518989694847,NA,NA,Parts per billion,11.135247275777415,39.751183999999995,-104.987625,75.5
01,033,NA,NA,Alabama,Colbert,Not in a city,NA,NA,NA,NA,Parts per billion,5.795328640568497,34.720368,-87.819755,14
06,033,Parts per million,1.9515362892916435,California,Lake,Clearlake Highlands,Parts per billion,11.401723615456238,Parts per million,0.026946116099071205,NA,NA,38.956286999999996,-122.647485,19
05,035,NA,NA,Arkansas,Crittenden,Not in a city,NA,NA,NA,NA,Parts per billion,12.300852682301333,35.104814,-90.190095,14
21,035,NA,NA,Kentucky,Calloway,Not in a city,NA,NA,Parts per million,0.022804225416906267,NA,NA,36.733942,-88.116697,33
34,035,Parts per million,2.173058082506763,New Jersey,Somerset,Somerville,NA,NA,NA,NA,NA,NA,40.569269999999996,-74.613213,NaN
49,035,NA,NA,Utah,Salt Lake,Salt Lake City,Parts per billion,19.339099106557377,NA,NA,NA,NA,40.755278,-111.885556,89
06,037,Parts per million,2.938372644440698,California,Los Angeles,Azusa,Parts per billion,49.31430956485598,Parts per million,0.029634464198203102,Parts per billion,8.855530790068702,34.136500000000005,-117.92391,31.333333333333332
12,039,NA,NA,Florida,Gadsden,Chattahoochee,NA,NA,NA,NA,Parts per billion,8.90481398753197,30.669914,-84.859364,10
34,039,Parts per million,1.8483052775138558,New Jersey,Union,Elizabeth,NA,NA,NA,NA,NA,NA,40.636140999999995,-74.22538066666667,91.5
06,041,Parts per million,1.5640578618022865,California,Marin,San Rafael,Parts per billion,24.683149016829052,Parts per million,0.025374992647058822,NA,NA,37.97231,-122.520004,29.5
21,041,NA,NA,Kentucky,Carroll,Not in a city,NA,NA,NA,NA,Parts per billion,8.83472930774801,38.725617,-85.33079,143
17,043,NA,NA,Illinois,DuPage,Wheaton,NA,NA,Parts per million,0.025446162083936325,NA,NA,41.854473,-88.10229,6
18,043,NA,NA,Indiana,Floyd,Not in a city,NA,NA,NA,NA,Parts per billion,9.22880715036301,38.23007,-85.848297,30
24,043,Parts per million,0.9285487300380229,Maryland,Washington,Hagerstown,NA,NA,NA,NA,NA,NA,39.645652,-77.719715,NaN
31,043,NA,NA,Nebraska,Dakota,Not in a city,Parts per billion,10.48715665497076,NA,NA,NA,NA,42.292215999999996,-96.42642099999999,17
06,045,NA,NA,California,Mendocino,Ukiah,NA,NA,Parts per million,0.02568703682487725,NA,NA,39.159337,-123.21445,6
18,045,NA,NA,Indiana,Fountain,Not in a city,NA,NA,NA,NA,Parts per billion,8.73839099120971,39.964200000000005,-87.421398,44
35,045,Parts per million,1.31009707727797,New Mexico,San Juan,Farmington,NA,NA,NA,NA,NA,NA,36.727503,-108.221463,NaN
42,045,NA,NA,Pennsylvania,Delaware,Chester,Parts per billion,27.27507939344262,NA,NA,NA,NA,39.835556,-75.3725,72
22,047,NA,NA,Louisiana,Iberville,Not in a city,NA,NA,Parts per million,0.028611948855989233,NA,NA,30.200197,-91.10010299999999,29
28,047,NA,NA,Mississippi,Harrison,Gulfport,NA,NA,NA,NA,Parts per billion,10.973029412176723,30.466863999999998,-88.998924,6
29,047,Parts per million,2.268271468367347,Missouri,Clay,Kansas City,NA,NA,NA,NA,NA,NA,39.164203,-94.548017,NaN
36,047,NA,NA,New York,Kings,New York,Parts per billion,17.664521540650405,NA,NA,NA,NA,40.732769999999995,-73.94722,52
21,049,NA,NA,Kentucky,Clark,Winchester,NA,NA,Parts per million,0.02335627972027972,NA,NA,38.004801,-84.16798399999999,16
26,049,NA,NA,Michigan,Genesee,Flint,NA,NA,NA,NA,Parts per billion,8.296040634191176,43.025027,-83.685789,14
28,049,Parts per million,1.4838255879503481,Mississippi,Hinds,Jackson,NA,NA,NA,NA,NA,NA,32.3621045,-90.1517545,42
06,051,Parts per million,2.278630997061704,California,Mono,Mammoth Lakes,NA,NA,NA,NA,NA,NA,37.647712999999996,-118.974301,NaN
13,051,NA,NA,Georgia,Chatham,Savannah,NA,NA,NA,NA,Parts per billion,8.922516691047619,32.054375,-81.123167,6
41,051,NA,NA,Oregon,Multnomah,Portland,Parts per billion,27.65293748013245,NA,NA,NA,NA,45.522583999999995,-122.677859,35
45,051,NA,NA,South Carolina,Horry,Not in a city,NA,NA,Parts per million,0.03353475581395349,NA,NA,33.704339,-78.873082,44
06,053,Parts per million,1.9238872974121282,California,Monterey,Salinas,NA,NA,NA,NA,Parts per billion,5.2387795,36.60505233333333,-121.78041266666666,12.666666666666666
06,055,Parts per million,1.1283163357910906,California,Napa,Napa,Parts per billion,11.626336654465593,Parts per million,0.022127524979524978,Parts per billion,14.767428043897215,38.310942,-122.296189,18.666666666666668
12,057,Parts per million,1.0434396974497682,Florida,Hillsborough,Tampa,NA,NA,Parts per million,0.026540594979647218,NA,NA,27.945669666666664,-82.44870533333332,28
06,059,Parts per million,1.7711606659368158,California,Orange,Anaheim,Parts per billion,27.946408055950265,Parts per million,0.02357804142259414,Parts per billion,8.188758126343902,33.821353,-117.91427,56.666666666666664
06,061,NA,NA,California,Placer,Auburn,NA,NA,Parts per million,0.025168657027818446,NA,NA,38.93767,-121.10492099999999,26
19,061,Parts per million,2.080147800135272,Iowa,Dubuque,Dubuque,NA,NA,NA,NA,NA,NA,42.5088915,-90.6544335,23
36,061,NA,NA,New York,New York,New York,Parts per billion,24.87356895597105,NA,NA,NA,NA,40.739546,-73.985694,43
12,063,NA,NA,Florida,Jackson,Not in a city,NA,NA,NA,NA,Parts per billion,9.032562815169236,30.668249,-84.91019899999999,19
26,063,Parts per million,2.2792250900133157,Michigan,Huron,Not in a city,NA,NA,NA,NA,NA,NA,43.863901999999996,-82.7040995,23.5
06,065,Parts per million,1.4961836410571603,California,Riverside,Banning,NA,NA,Parts per million,0.03683943362621705,NA,NA,33.94405733333333,-117.21699133333334,35.666666666666664
06,067,Parts per million,1.0058388707616708,California,Sacramento,Citrus Heights,Parts per billion,23.129650641771313,Parts per million,0.022784455867433207,Parts per billion,6.218598049699131,38.667125999999996,-121.251338,25.333333333333332
06,069,NA,NA,California,San Benito,Hollister,Parts per billion,13.58952911053316,Parts per million,0.02434608875739645,NA,NA,36.855509999999995,-121.39299,16.5
08,069,Parts per million,1.802828217547001,Colorado,Larimer,Fort Collins,NA,NA,NA,NA,NA,NA,40.566371,-105.075256,NaN
42,069,NA,NA,Pennsylvania,Lackawanna,Scranton,NA,NA,NA,NA,Parts per billion,14.115553860513533,41.442778,-75.62305599999999,47
01,071,NA,NA,Alabama,Jackson,Not in a city,NA,NA,NA,NA,Parts per billion,7.085229360782368,34.856747999999996,-85.73525,69
06,071,Parts per million,1.8076278583287215,California,San Bernardino,Barstow,Parts per billion,34.46593661584634,Parts per million,0.03975284866468842,NA,NA,34.89398,-117.024804,19.5
01,073,Parts per million,1.314173180874722,Alabama,Jefferson,Birmingham,NA,NA,NA,NA,NA,NA,33.503108499999996,-86.858467,27
06,073,NA,NA,California,San Diego,Chula Vista,Parts per billion,24.233026919708028,NA,NA,NA,NA,32.6312365,-117.0590815,61
06,075,Parts per million,1.4874132204819277,California,San Francisco,San Francisco,Parts per billion,28.782276942558745,Parts per million,0.021074604210526315,Parts per billion,1.4596543244274809,37.784,-122.42160000000001,18.666666666666668
01,077,NA,NA,Alabama,Lauderdale,Not in a city,NA,NA,NA,NA,Parts per billion,7.921777758083675,34.786755,-87.78253099999999,14
06,077,Parts per million,1.1040627313064912,California,San Joaquin,Lodi,NA,NA,Parts per million,0.03166720694349898,NA,NA,37.982423,-121.3666145,28
06,079,Parts per million,0.9625647886146497,California,San Luis Obispo,San Luis Obispo,Parts per billion,21.200441046221112,NA,NA,NA,NA,35.36145466666667,-120.62498466666666,13.333333333333334
06,081,Parts per million,1.483850255423373,California,San Mateo,Redwood City,Parts per billion,24.131001001564943,Parts per million,0.02158986372745491,NA,NA,37.482934,-122.20337,33
26,081,NA,NA,Michigan,Kent,Grand Rapids,NA,NA,NA,NA,Parts per billion,16.196042913890636,42.984173,-85.67133899999999,10
06,083,Parts per million,1.038931525,California,Santa Barbara,Santa Barbara,Parts per billion,23.15537010480349,NA,NA,NA,NA,34.466798999999995,-119.8536105,22
06,085,Parts per million,2.0429137192066804,California,Santa Clara,Gilroy,Parts per billion,24.695337993630574,Parts per million,0.02299617717121588,NA,NA,37.001337,-121.514939,22
36,085,NA,NA,New York,Richmond,New York,NA,NA,NA,NA,Parts per billion,13.854111162971003,40.59664,-74.12525,71
12,086,Parts per million,2.271548811550152,Florida,Miami-Dade,Miami,NA,NA,NA,NA,NA,NA,25.832411999999998,-80.282828,12
06,087,NA,NA,California,Santa Cruz,Aptos,Parts per billion,10.255559704883227,Parts per million,0.029794181629834254,NA,NA,36.98995,-121.925792,21
30,087,NA,NA,Montana,Rosebud,Not in a city,NA,NA,NA,NA,Parts per billion,3.9834653667883213,45.87444,-106.587246,0
51,087,Parts per million,1.1172423224299066,Virginia,Henrico,Not in a city,NA,NA,NA,NA,NA,NA,37.590424,-77.502207,NaN
01,089,Parts per million,0.9769152763157894,Alabama,Madison,Huntsville,Parts per billion,21.420694110248448,Parts per million,0.024974466666666667,NA,NA,34.687761,-86.586362,25
12,089,NA,NA,Florida,Nassau,Fernandina Beach,NA,NA,NA,NA,Parts per billion,12.743061686777274,30.658552,-81.463168,29
02,090,Parts per million,2.3824160694444445,Alaska,Fairbanks North Star,Fairbanks,NA,NA,NA,NA,NA,NA,64.840402,-147.72548,NaN
18,091,NA,NA,Indiana,LaPorte,Michigan City,NA,NA,NA,NA,Parts per billion,10.21356305034325,41.701983,-86.92503099999999,124
20,091,Parts per million,1.2250903359809373,Kansas,Johnson,Overland Park,NA,NA,NA,NA,NA,NA,38.8534795,-94.76273799999998,84
42,091,NA,NA,Pennsylvania,Montgomery,Norristown,Parts per billion,28.650729416988415,NA,NA,NA,NA,40.112221999999996,-75.309167,54
21,093,NA,NA,Kentucky,Hardin,Not in a city,Parts per billion,18.53039544680851,Parts per million,0.02247007864302236,NA,NA,37.757563,-85.72051599999999,27.5
29,093,NA,NA,Missouri,Iron,Not in a city,NA,NA,NA,NA,Parts per billion,11.535363111754966,37.658080999999996,-91.115594,14
36,093,Parts per million,1.7598710398162327,New York,Schenectady,Schenectady,NA,NA,NA,NA,NA,NA,42.799009999999996,-73.9389,NaN
06,095,Parts per million,1.235405689047619,California,Solano,Vallejo,Parts per billion,19.553106040789473,NA,NA,NA,NA,38.133382999999995,-122.14589166666667,22.333333333333332
01,097,NA,NA,Alabama,Mobile,Not in a city,NA,NA,Parts per million,0.02141116176470588,NA,NA,30.63065,-88.091295,9.5
06,097,Parts per million,2.0044551803579624,California,Sonoma,Santa Rosa,Parts per billion,27.50755271016692,NA,NA,NA,NA,38.442412,-122.71359799999999,19
01,099,NA,NA,Alabama,Monroe,Monroeville,NA,NA,Parts per million,0.024212815167682925,NA,NA,31.487662999999998,-87.327207,42
06,099,Parts per million,1.3736839935088352,California,Stanislaus,Modesto,Parts per billion,31.629906405462183,NA,NA,Parts per billion,6.802437540915733,37.640763,-120.99937800000001,19
06,101,NA,NA,California,Sutter,Yuba City,NA,NA,Parts per million,0.018832691114245414,NA,NA,39.122113999999996,-121.60441,0
08,101,Parts per million,1.164480882382892,Colorado,Pueblo,Pueblo,NA,NA,NA,NA,NA,NA,38.266391999999996,-104.61053,NaN
21,101,NA,NA,Kentucky,Henderson,Henderson,Parts per billion,35.276876387530564,NA,NA,Parts per billion,14.54108781559694,37.856154,-87.575290999999993,49.5
01,103,NA,NA,Alabama,Morgan,Decatur,Parts per billion,22.199810994459835,Parts per million,0.026324383486238532,Parts per billion,7.013686159596423,34.619814,-86.997509,66.33333333333333
12,103,Parts per million,1.0904978650116368,Florida,Pinellas,Saint Petersburg,NA,NA,NA,NA,NA,NA,27.785866,-82.739875,NaN
26,105,NA,NA,Michigan,Mason,Ludington,NA,NA,NA,NA,Parts per billion,2.7099976032998567,43.943894,-86.435638,6
55,105,NA,NA,Wisconsin,Rock,Avalon,Parts per billion,4.171179861167002,NA,NA,NA,NA,42.567651999999995,-89.039554999999993,9.5
06,107,Parts per million,0.8395723612637362,California,Tulare,Visalia,Parts per billion,25.850002066852365,Parts per million,0.03409183458646616,Parts per billion,7.652787418526786,36.332178999999996,-119.291228,17.666666666666668
06,109,Parts per million,2.2639281139896372,California,Tuolumne,Sonora,NA,NA,NA,NA,NA,NA,37.649933,-120.381582,NaN
12,109,NA,NA,Florida,St. Johns,Not in a city,NA,NA,NA,NA,Parts per billion,4.2129340883518225,29.806912999999998,-81.530636,13
27,109,NA,NA,Minnesota,Olmsted,Not in a city,NA,NA,Parts per million,0.026285595588235292,NA,NA,44.003853,-92.414896,13
40,109,NA,NA,Oklahoma,Oklahoma,Oklahoma City,Parts per billion,19.82562711020408,NA,NA,NA,NA,35.477036,-97.494309,70
06,111,Parts per million,1.5227188798223703,California,Ventura,Simi Valley,NA,NA,NA,NA,NA,NA,34.30532,-118.98080025,20.333333333333332
06,113,Parts per million,0.8584811272328423,California,Yolo,Woodland,NA,NA,Parts per million,0.023165045038705135,NA,NA,38.672683,-121.789408,15
19,113,NA,NA,Iowa,Linn,Cedar Rapids,NA,NA,NA,NA,Parts per billion,7.829243903983353,41.972778999999996,-91.669902,14
39,113,NA,NA,Ohio,Montgomery,Dayton,Parts per billion,19.379082506294964,NA,NA,NA,NA,39.769200999999995,-84.211294,42
13,115,NA,NA,Georgia,Floyd,Not in a city,NA,NA,NA,NA,Parts per billion,7.253926038569274,34.2605,-85.3232,27
17,115,NA,NA,Illinois,Macon,Decatur,NA,NA,Parts per million,0.030559465587044532,NA,NA,39.874204,-88.925078,10
12,117,NA,NA,Florida,Seminole,Sanford,NA,NA,Parts per million,0.02415811137254902,NA,NA,28.746111,-81.31055599999999,51
21,117,Parts per million,1.8452108551912567,Kentucky,Kenton,Covington,NA,NA,NA,NA,NA,NA,39.085616,-84.50938699999999,NaN
55,117,NA,NA,Wisconsin,Sheboygan,Not in a city,Parts per billion,8.989285231428571,NA,NA,Parts per billion,3.975476858738135,43.709717999999995,-87.740364,4.5
05,119,NA,NA,Arkansas,Pulaski,North Little Rock,Parts per billion,8.328504179190752,NA,NA,Parts per billion,10.476251722152405,34.756378999999995,-92.298283,13
17,119,Parts per million,1.843607960904844,Illinois,Madison,Alton,NA,NA,NA,NA,NA,NA,38.875881,-90.194554,NaN
13,121,Parts per million,1.6735706572568272,Georgia,Fulton,Atlanta,Parts per billion,32.37059669230769,NA,NA,Parts per billion,8.441324996245894,33.752625,-84.383325,51
19,121,NA,NA,Iowa,Madison,Not in a city,NA,NA,Parts per million,0.030304092130518233,NA,NA,41.328323,-94.01689499999999,19
08,123,Parts per million,1.708709529617946,Colorado,Weld,Greeley,NA,NA,Parts per million,0.027310358916478553,NA,NA,40.41637,-104.70691,19
27,123,NA,NA,Minnesota,Ramsey,Roseville,Parts per billion,24.25917429239766,NA,NA,Parts per billion,6.423382527227723,45.016355,-93.181612,17
01,125,NA,NA,Alabama,Tuscaloosa,Not in a city,NA,NA,Parts per million,0.02204891420911528,NA,NA,33.251784,-87.44861499999999,40
26,125,Parts per million,1.607892905228758,Michigan,Oakland,Southfield,NA,NA,NA,NA,NA,NA,42.598366999999996,-83.2189605,37.5
13,127,NA,NA,Georgia,Glynn,Brunswick,NA,NA,NA,NA,Parts per billion,8.364391687273502,31.150786999999998,-81.47704399999999,17
18,127,NA,NA,Indiana,Porter,Not in a city,Parts per billion,9.487210074452554,NA,NA,NA,NA,20.6441865,-43.4739005,31
18,129,NA,NA,Indiana,Posey,Not in a city,Parts per billion,19.80610490909091,NA,NA,Parts per billion,7.062587837116155,37.902542,-87.732798,71
37,129,NA,NA,North Carolina,New Hanover,Castle Hayne,NA,NA,Parts per million,0.03439967407407407,NA,NA,34.364167,-77.838611,43
26,131,NA,NA,Michigan,Ontonagon,Not in a city,NA,NA,NA,NA,Parts per billion,2.5552477427077602,46.783556999999995,-89.563209,0
51,131,NA,NA,Virginia,Northampton,Not in a city,NA,NA,Parts per million,0.039217338150289015,NA,NA,37.28986,-75.971321,42
17,133,NA,NA,Illinois,Monroe,Waterloo,NA,NA,Parts per million,0.026662218073188946,NA,NA,38.330608999999995,-90.15983399999999,6
42,133,Parts per million,1.014839759142497,Pennsylvania,York,York,Parts per billion,25.891797207715133,NA,NA,Parts per billion,12.397943707386364,39.965278,-76.699444,55.5
39,135,NA,NA,Ohio,Preble,New Paris,NA,NA,Parts per million,0.029368051004636783,NA,NA,39.83562,-84.720524,12
48,135,Parts per million,0.3519246645962733,Texas,Ector,Odessa,Parts per billion,12.48859738271605,NA,NA,Parts per billion,1.9833938953488373,31.872346999999998,-102.352921,26
27,137,Parts per million,2.493858949175824,Minnesota,Saint Louis,Duluth,NA,NA,NA,NA,Parts per billion,4.878140708198838,46.78362,-92.10251,7
19,139,NA,NA,Iowa,Muscatine,Muscatine,NA,NA,NA,NA,Parts per billion,6.877178018598322,41.437528,-91.075429,0
55,139,NA,NA,Wisconsin,Winnebago,Oshkosh,NA,NA,Parts per million,0.0290296568627451,NA,NA,44.075817,-88.528724,1
18,141,NA,NA,Indiana,St. Joseph,Granger,NA,NA,Parts per million,0.02246075920873124,NA,NA,41.7181285,-86.173597,36
27,141,Parts per million,1.6998638602540834,Minnesota,Sherburne,St. Cloud,NA,NA,NA,NA,NA,NA,45.560243,-94.1636,NaN
48,141,NA,NA,Texas,El Paso,El Paso,Parts per billion,23.203774467043313,NA,NA,NA,NA,31.763075999999998,-106.486712,38
17,143,Parts per million,1.94128887342611,Illinois,Peoria,Peoria,NA,NA,NA,NA,NA,NA,40.69122899999999,-89.59713099999999,6.5
40,143,NA,NA,Oklahoma,Tulsa,Tulsa,Parts per billion,18.1041767366985,NA,NA,NA,NA,36.160925999999996,-95.97833,37
21,145,Parts per million,1.0402520917190776,Kentucky,McCracken,Paducah,NA,NA,NA,NA,NA,NA,37.12357333333333,-88.73505333333333,43
18,147,NA,NA,Indiana,Spencer,Not in a city,Parts per billion,9.811143698959167,NA,NA,NA,NA,38.002692499999995,-86.901655,65.5
26,147,Parts per million,3.1967779615384613,Michigan,St. Clair,Port Huron,NA,NA,Parts per million,0.02186317403314917,NA,NA,42.947807999999995,-82.441581,4
28,149,NA,NA,Mississippi,Warren,Vicksburg,NA,NA,NA,NA,Parts per billion,6.454393034542314,32.32298,-90.887216,6
39,151,Parts per million,1.0980687779527558,Ohio,Stark,Canton,Parts per billion,28.86347880952381,Parts per million,0.026692199115044248,NA,NA,40.792458999999994,-81.39191249999999,48.333333333333336
18,153,NA,NA,Indiana,Sullivan,Not in a city,Parts per billion,17.032484005586593,NA,NA,Parts per billion,15.045098278701717,39.208650999999996,-87.553634,67
19,153,Parts per million,2.2636819123461396,Iowa,Polk,Des Moines,NA,NA,NA,NA,NA,NA,41.643460499999996,-93.54715999999999,14
39,155,NA,NA,Ohio,Trumbull,Warren,NA,NA,NA,NA,Parts per billion,7.8379229836309525,41.233577,-80.817501,50
39,157,NA,NA,Ohio,Tuscarawas,Dover,NA,NA,NA,NA,Parts per billion,10.438298479147779,40.515342,-81.47845,34
47,157,Parts per million,1.8225462238095238,Tennessee,Shelby,Memphis,NA,NA,Parts per million,0.027767138643067846,NA,NA,35.1329635,-90.0937895,12
17,161,Parts per million,1.6187285129682998,Illinois,Rock Island,Moline,NA,NA,NA,NA,NA,NA,41.5092005,-90.51346749999999,5.5
17,163,Parts per million,1.0655022631124913,Illinois,Saint Clair,East Saint Louis,NA,NA,Parts per million,0.023545026707132016,Parts per billion,10.455273894586405,38.612034,-90.160477,58
18,163,NA,NA,Indiana,Vanderburgh,Not in a city,Parts per billion,21.80703451345962,NA,NA,NA,NA,37.939485999999995,-87.683352,15
18,165,NA,NA,Indiana,Vermillion,Not in a city,NA,NA,NA,NA,Parts per billion,9.350603148371532,39.878371,-87.40723799999999,19
29,165,Parts per million,2.7691836666666667,Missouri,Platte,Kansas City,NA,NA,Parts per million,0.020227122080679404,NA,NA,39.300033,-94.700244,9
17,167,Parts per million,1.5086957764820215,Illinois,Sangamon,Springfield,NA,NA,NA,NA,NA,NA,39.813139,-89.62501466666666,11
18,167,NA,NA,Indiana,Vigo,Not in a city,Parts per billion,10.402493388888889,NA,NA,NA,NA,39.302817,-87.481133,26
19,169,NA,NA,Iowa,Story,Ames,NA,NA,NA,NA,Parts per billion,2.8133487057291666,42.018875,-93.623274,9
27,171,NA,NA,Minnesota,Wright,Not in a city,NA,NA,NA,NA,Parts per billion,0.4699857906869525,45.332743,-93.94192199999999,0
18,173,NA,NA,Indiana,Warrick,Not in a city,NA,NA,NA,NA,Parts per billion,10.24443071865308,37.937560999999995,-87.314173,66
20,173,Parts per million,1.3441815490605429,Kansas,Sedgwick,Wichita,NA,NA,NA,NA,NA,NA,37.741733499999995,-97.326195,21
18,177,NA,NA,Indiana,Wayne,Richmond,NA,NA,NA,NA,Parts per billion,9.883112129559748,39.813367,-84.891871,33
21,177,NA,NA,Kentucky,Muhlenberg,Not in a city,Parts per billion,7.861061166167665,Parts per million,0.02872861932938856,NA,NA,37.205042999999996,-86.94027299999999,15
17,179,NA,NA,Illinois,Tazewell,East Peoria,NA,NA,NA,NA,Parts per billion,8.546655930444699,40.665037999999996,-89.57620899999999,13
21,183,NA,NA,Kentucky,Ohio,Not in a city,Parts per billion,8.070531545221844,NA,NA,Parts per billion,8.412151576120666,37.440464500000004,-86.8511025,33.333333333333336
37,183,Parts per million,2.672276973429952,North Carolina,Wake,Raleigh,NA,NA,NA,NA,NA,NA,0,0,NaN
02,185,Parts per million,0.18955407584269662,Alaska,North Slope,Not in a city,Parts per billion,2.72903,Parts per million,0.023162434065934066,Parts per billion,17.81317397905759,70.263611,-148.756938,16.666666666666668
29,189,Parts per million,1.258595209834191,Missouri,Saint Louis,Green Park,Parts per billion,23.51385422816092,Parts per million,0.026955484464902184,Parts per billion,8.536730120732575,38.521718,-90.34371399999999,69.66666666666667
19,193,Parts per million,0.2863203043933054,Iowa,Woodbury,Not in a city,Parts per billion,4.905018774261603,Parts per million,0.030700230263157893,Parts per billion,2.672610524742268,42.351382,-96.38864099999999,10.333333333333334
17,197,Parts per million,2.414269457983193,Illinois,Will,Joliet,NA,NA,NA,NA,NA,NA,41.442901666666664,-88.13218933333333,18
17,199,NA,NA,Illinois,Williamson,Marion,NA,NA,Parts per million,0.028000238178633976,Parts per billion,8.956742050847458,37.728106,-88.953682,44.5
17,201,NA,NA,Illinois,Winnebago,Rockford,NA,NA,Parts per million,0.023895611656636045,NA,NA,42.267911,-89.075083,7
48,201,Parts per million,0.7973497939681464,Texas,Harris,Houston,Parts per billion,27.29638972183908,NA,NA,NA,NA,29.901035999999998,-95.326137,68
13,205,NA,NA,Georgia,Mitchell,Not in a city,NA,NA,NA,NA,Parts per billion,6.263575131578948,31.437676999999997,-84.12129499999999,6
20,209,Parts per million,1.3846544632564841,Kansas,Wyandotte,Kansas City,NA,NA,NA,NA,Parts per billion,8.901660472543353,39.11306,-94.624679,4
13,215,NA,NA,Georgia,Muscogee,Columbus,NA,NA,Parts per million,0.02228850185873606,NA,NA,32.500280000000004,-84.90437499999999,12.5
21,221,NA,NA,Kentucky,Trigg,Not in a city,NA,NA,NA,NA,Parts per billion,3.853516861063465,36.790884999999996,-88.016969,14
13,223,NA,NA,Georgia,Paulding,Not in a city,NA,NA,Parts per million,0.030984739612188363,NA,NA,33.959824,-84.78938199999999,9
21,223,NA,NA,Kentucky,Trimble,Not in a city,Parts per billion,11.522784768939394,NA,NA,NA,NA,38.7167265,-85.411069,36.5
48,233,NA,NA,Texas,Hutchinson,Not in a city,NA,NA,Parts per million,0.033051175257731956,NA,NA,36.053092,-101.284605,6
13,245,NA,NA,Georgia,Richmond,Augusta,NA,NA,NA,NA,Parts per billion,7.49271872627451,33.39375,-82.006228,10
48,245,Parts per million,0.34874358726899385,Texas,Jefferson,Beaumont,Parts per billion,13.810489291666666,Parts per million,0.02762938596491228,NA,NA,30.041667,-94.079167,22.5
13,247,NA,NA,Georgia,Rockdale,Conyers,NA,NA,Parts per million,0.019099101265822784,NA,NA,33.588544999999996,-84.069608,41
02,261,NA,NA,Alaska,Valdez-Cordova,Not in a city,Parts per billion,4.251439636619718,Parts per million,0.024108131195335277,NA,NA,61.080029999999994,-146.3853515,15.666666666666666
13,309,NA,NA,Georgia,Wheeler,Not in a city,NA,NA,NA,NA,Parts per billion,4.937650191860466,32.091564999999996,-82.88875399999999,6
48,355,Parts per million,0.5403149390243902,Texas,Nueces,Corpus Christi,NA,NA,Parts per million,0.02692844578313253,Parts per billion,2.4278545519877675,27.789444,-97.43333299999999,30
48,361,NA,NA,Texas,Orange,West Orange,Parts per billion,12.71440717877095,Parts per million,0.03221963157894737,Parts per billion,1.481143250909091,30.085262999999998,-93.761341,30
48,375,NA,NA,Texas,Potter,Amarillo,NA,NA,Parts per million,0.02637868449197861,NA,NA,35.282551999999995,-101.830741,24
48,439,Parts per million,0.42830145875706216,Texas,Tarrant,Arlington,NA,NA,Parts per million,0.03164409940357853,NA,NA,32.758505666666665,-97.27103233333334,29.666666666666668
48,453,Parts per million,0.4518001011904762,Texas,Travis,Austin,Parts per billion,11.772239581395349,NA,NA,NA,NA,30.2966625,-97.7315165,23.666666666666668
24,510,Parts per million,1.5708922126436782,Maryland,Baltimore (City),Baltimore,Parts per billion,31.27095870136452,Parts per million,0.01658253437967115,Parts per billion,14.969631711134236,39.299828999999995,-76.61274499999999,25
51,520,NA,NA,Virginia,Bristol City,Bristol,NA,NA,NA,NA,Parts per billion,6.916627567528736,36.605939,-82.17652199999999,75
51,550,NA,NA,Virginia,Chesapeake City,Chesapeake,NA,NA,Parts per million,0.04345766875,NA,NA,36.736954499999996,-76.302718,61.5
51,600,Parts per million,0.5573637283950618,Virginia,Fairfax City,Fairfax,Parts per billion,18.406220105,Parts per million,0.024379662011173184,Parts per billion,8.21087356557377,38.844834999999996,-77.311651,29
51,630,NA,NA,Virginia,Fredericksburg City,Fredericksburg,NA,NA,Parts per million,0.028164415662650603,NA,NA,38.311516999999995,-77.448595,28
51,650,NA,NA,Virginia,Hampton City,Hampton,NA,NA,Parts per million,0.03689231558935361,Parts per billion,11.297139411202187,37.000983,-76.39863299999999,38
51,670,NA,NA,Virginia,Hopewell City,Hopewell,NA,NA,NA,NA,Parts per billion,15.120982997214485,37.303481999999995,-77.281644,94
51,700,Parts per million,1.091335603305785,Virginia,Newport News City,Newport News,NA,NA,NA,NA,NA,NA,37.074314,-76.494395,NaN
51,710,Parts per million,1.2146249356725145,Virginia,Norfolk City,Norfolk,NA,NA,NA,NA,NA,NA,36.850426,-76.276051,NaN
51,760,Parts per million,1.71069266562986,Virginia,Richmond City,Richmond,Parts per billion,30.567331957317073,NA,NA,Parts per billion,14.41594261904762,37.539868,-77.43414899999999,19
51,775,NA,NA,Virginia,Salem City,Salem,NA,NA,Parts per million,0.023170691460055095,Parts per billion,6.392371220103986,37.237635999999995,-80.052539,5
51,810,Parts per million,0.7411708608562692,Virginia,Virginia Beach City,Virginia Beach,Parts per billion,17.94568514417178,Parts per million,0.025474065714285715,Parts per billion,6.991871198611111,36.890981,-76.183548,17.333333333333332
