State Code,County Code,Latitude,Longitude,Date Local,CO Units,CO Mean,State Name,County Name,City Name,NO2 Units,NO2 Mean,Ozone Units,Ozone Mean,SO2 Units,SO2 Mean,AQI
06,001,37.800484,-122.266358,1980-01-01,Parts per million,1.9090715158446092,California,Alameda,Oakland,Parts per billion,26.185315599020672,NA,NA,NA,NA,41.333333333333336
04,003,31.555000000000003,-110.29,1980-01-25,Parts per million,1.7562771045377714,Arizona,Cochise,Sierra Vista (Garden Canon),NA,NA,NA,NA,NA,NA,87
04,005,35.213889,-111.61250000000001,1980-01-01,Parts per million,1.5037709115456237,Arizona,Coconino,Flagstaff,NA,NA,NA,NA,NA,NA,13.333333333333334
06,007,39.757371,-121.843286,1980-01-01,Parts per million,0.9889455011924417,California,Butte,Not in a city,Parts per billion,26.388101199864497,Parts per million,0.02512338628370457,NA,NA,11.333333333333334
09,009,41.307041,-72.924269,1980-02-01,Parts per million,0.9396959424703891,Connecticut,New Haven,New Haven,NA,NA,NA,NA,NA,NA,47
12,011,26.086477,-80.20282499999999,1980-01-01,Parts per million,1.654710483421432,Florida,Broward,Not in a city,NA,NA,NA,NA,NA,NA,90.33333333333333
04,013,33.405322999999996,-112.074036,1980-04-11,Parts per million,1.5468544254127359,Arizona,Maricopa,Phoenix,NA,NA,NA,NA,NA,NA,38.666666666666664
33,015,43.075644,-70.759776,1980-01-01,Parts per million,1.1030702695086705,New Hampshire,Rockingham,Portsmouth,NA,NA,NA,NA,NA,NA,48.333333333333336
06,017,38.916575,-120.001015,1980-01-01,Parts per million,1.630022125188253,California,El Dorado,South Lake Tahoe,Parts per billion,18.914944513372472,NA,NA,Parts per billion,7.619999350009047,48.333333333333336
04,019,32.222058,-110.974681,1980-01-01,Parts per million,1.34343030195617,Arizona,Pima,Tucson,Parts per billion,24.913904826627956,Parts per million,0.030154139120756814,NA,NA,28
02,020,61.21917,-149.897762,1980-01-01,Parts per million,1.9497657831858406,Alaska,Anchorage,Anchorage,NA,NA,NA,NA,NA,NA,0
25,021,42.244544,-70.971436,1980-01-01,Parts per million,1.4441895913461538,Massachusetts,Norfolk,Quincy,NA,NA,NA,NA,NA,NA,22.666666666666668
34,023,40.508764,-74.26808299999999,1980-01-01,Parts per million,2.5876048651362984,New Jersey,Middlesex,Perth Amboy,NA,NA,NA,NA,NA,NA,25.333333333333332
04,025,34.558611,-112.4825,1980-12-05,Parts per million,2.6549975619402986,Arizona,Yavapai,Prescott,NA,NA,NA,NA,NA,NA,31.666666666666668
04,027,32.700509,-114.622669,1980-01-24,Parts per million,1.7731638285835813,Arizona,Yuma,Yuma,NA,NA,NA,NA,NA,NA,48
06,029,35.374959,-119.022602,1980-01-01,Parts per million,1.5581864560856864,California,Kern,Bakersfield,Parts per billion,27.314480384894697,Parts per million,0.02607652050816697,Parts per billion,13.829934186607877,28.666666666666668
08,031,39.751183999999995,-104.987625,1980-01-01,Parts per million,1.9945205147590934,Colorado,Denver,Denver,Parts per billion,32.51518989694847,NA,NA,Parts per billion,11.135247275777415,54
06,033,38.956286999999996,-122.647485,1980-06-14,Parts per million,1.9515362892916435,California,Lake,Clearlake Highlands,NA,NA,NA,NA,NA,NA,17.333333333333332
34,035,40.569269999999996,-74.613213,1980-01-02,Parts per million,2.173058082506763,New Jersey,Somerset,Somerville,NA,NA,NA,NA,NA,NA,45.333333333333336
06,037,34.136500000000005,-117.92391,1980-01-01,Parts per million,2.938372644440698,California,Los Angeles,Azusa,Parts per billion,49.31430956485598,Parts per million,0.029634464198203102,Parts per billion,8.855530790068702,31.333333333333332
34,039,40.662434999999995,-74.214854,1980-01-01,Parts per million,1.8483052775138558,New Jersey,Union,Elizabeth,NA,NA,NA,NA,NA,NA,64.33333333333333
06,041,37.97231,-122.520004,1980-01-01,Parts per million,1.5640578618022865,California,Marin,San Rafael,Parts per billion,24.683149016829052,Parts per million,0.025374992647058822,NA,NA,67.33333333333333
24,043,39.645652,-77.719715,1980-01-01,Parts per million,0.9285487300380229,Maryland,Washington,Hagerstown,NA,NA,NA,NA,NA,NA,17.666666666666668
35,045,36.727503,-108.221463,1980-01-01,Parts per million,1.31009707727797,New Mexico,San Juan,Farmington,NA,NA,NA,NA,NA,NA,40.666666666666664
29,047,39.164203,-94.548017,1980-06-16,Parts per million,2.268271468367347,Missouri,Clay,Kansas City,NA,NA,NA,NA,NA,NA,29
28,049,32.338478,-90.162309,1980-01-01,Parts per million,1.4838255879503481,Mississippi,Hinds,Jackson,NA,NA,NA,NA,NA,NA,24
06,051,37.647712999999996,-118.974301,1980-03-01,Parts per million,2.278630997061704,California,Mono,Mammoth Lakes,NA,NA,NA,NA,NA,NA,28.333333333333332
06,053,36.697181,-121.633556,1980-01-01,Parts per million,1.9238872974121282,California,Monterey,Salinas,NA,NA,NA,NA,NA,NA,12.666666666666666
06,055,38.310942,-122.296189,1980-01-01,Parts per million,1.1283163357910906,California,Napa,Napa,Parts per billion,11.626336654465593,Parts per million,0.022127524979524978,Parts per billion,14.767428043897215,18.666666666666668
12,057,27.928355999999997,-82.454539,1980-02-20,Parts per million,1.0434396974497682,Florida,Hillsborough,Tampa,NA,NA,NA,NA,NA,NA,28
06,059,33.821353,-117.91427,1980-01-01,Parts per million,1.7711606659368158,California,Orange,Anaheim,Parts per billion,27.946408055950265,Parts per million,0.02357804142259414,Parts per billion,8.188758126343902,56.666666666666664
19,061,42.492225,-90.666795,1980-01-01,Parts per million,2.080147800135272,Iowa,Dubuque,Dubuque,NA,NA,NA,NA,NA,NA,30.666666666666668
26,063,43.874734,-82.743546,1980-01-01,Parts per million,2.2792250900133157,Michigan,Huron,Not in a city,NA,NA,NA,NA,NA,NA,22
06,065,33.927794,-116.874466,1980-01-01,Parts per million,1.4961836410571603,California,Riverside,Banning,NA,NA,Parts per million,0.03683943362621705,NA,NA,35.666666666666664
06,067,38.667125999999996,-121.251338,1980-02-01,Parts per million,1.0058388707616708,California,Sacramento,Citrus Heights,Parts per billion,23.129650641771313,NA,NA,Parts per billion,6.218598049699131,25.333333333333332
08,069,40.566371,-105.075256,1980-01-01,Parts per million,1.802828217547001,Colorado,Larimer,Fort Collins,NA,NA,NA,NA,NA,NA,26.666666666666668
06,071,34.89398,-117.024804,1980-01-01,Parts per million,1.8076278583287215,California,San Bernardino,Barstow,NA,NA,Parts per million,0.03975284866468842,NA,NA,36
01,073,33.520661,-86.801934,1980-01-01,Parts per million,1.314173180874722,Alabama,Jefferson,Birmingham,NA,NA,NA,NA,NA,NA,49.666666666666664
06,075,37.784,-122.42160000000001,1980-01-01,Parts per million,1.4874132204819277,California,San Francisco,San Francisco,Parts per billion,28.782276942558745,Parts per million,0.021074604210526315,NA,NA,18.666666666666668
06,077,38.116586,-121.286337,1980-01-01,Parts per million,1.1040627313064912,California,San Joaquin,Lodi,NA,NA,NA,NA,NA,NA,23.333333333333332
06,079,35.283864,-120.655171,1980-01-01,Parts per million,0.9625647886146497,California,San Luis Obispo,San Luis Obispo,NA,NA,NA,NA,NA,NA,13.333333333333334
06,081,37.482934,-122.20337,1980-01-01,Parts per million,1.483850255423373,California,San Mateo,Redwood City,Parts per billion,24.131001001564943,NA,NA,NA,NA,25.333333333333332
06,083,34.419996999999995,-119.70069,1980-01-01,Parts per million,1.038931525,California,Santa Barbara,Santa Barbara,Parts per billion,23.15537010480349,NA,NA,NA,NA,22
06,085,37.001337,-121.514939,1980-01-01,Parts per million,2.0429137192066804,California,Santa Clara,Gilroy,Parts per billion,24.695337993630574,Parts per million,0.02299617717121588,NA,NA,38.333333333333336
12,086,25.773988,-80.19004799999999,1980-07-01,Parts per million,2.271548811550152,Florida,Miami-Dade,Miami,NA,NA,NA,NA,NA,NA,12
51,087,37.590424,-77.502207,1980-02-14,Parts per million,1.1172423224299066,Virginia,Henrico,Not in a city,NA,NA,NA,NA,NA,NA,14
01,089,34.687761,-86.586362,1980-01-01,Parts per million,0.9769152763157894,Alabama,Madison,Huntsville,Parts per billion,21.420694110248448,Parts per million,0.024974466666666667,NA,NA,26.333333333333332
02,090,64.840402,-147.72548,1980-01-01,Parts per million,2.3824160694444445,Alaska,Fairbanks North Star,Fairbanks,NA,NA,NA,NA,NA,NA,NaN
20,091,38.95695,-94.69523699999999,1980-01-01,Parts per million,1.2250903359809373,Kansas,Johnson,Overland Park,NA,NA,NA,NA,NA,NA,87.33333333333333
36,093,42.799009999999996,-73.9389,1980-01-01,Parts per million,1.7598710398162327,New York,Schenectady,Schenectady,NA,NA,NA,NA,NA,NA,23
06,095,38.102506999999996,-122.237976,1980-01-01,Parts per million,1.235405689047619,California,Solano,Vallejo,Parts per billion,19.553106040789473,NA,NA,NA,NA,22.333333333333332
06,097,38.442412,-122.71359799999999,1980-01-01,Parts per million,2.0044551803579624,California,Sonoma,Santa Rosa,Parts per billion,27.50755271016692,NA,NA,NA,NA,12.666666666666666
06,099,37.640763,-120.99937800000001,1980-01-01,Parts per million,1.3736839935088352,California,Stanislaus,Modesto,Parts per billion,31.629906405462183,NA,NA,Parts per billion,6.802437540915733,26.666666666666668
08,101,38.266391999999996,-104.61053,1980-01-01,Parts per million,1.164480882382892,Colorado,Pueblo,Pueblo,NA,NA,NA,NA,NA,NA,33
12,103,27.785866,-82.739875,1980-03-16,Parts per million,1.0904978650116368,Florida,Pinellas,Saint Petersburg,NA,NA,NA,NA,NA,NA,66.33333333333333
06,107,36.332178999999996,-119.291228,1980-01-01,Parts per million,0.8395723612637362,California,Tulare,Visalia,Parts per billion,25.850002066852365,Parts per million,0.03409183458646616,Parts per billion,7.652787418526786,17.666666666666668
06,109,37.649933,-120.381582,1980-01-01,Parts per million,2.2639281139896372,California,Tuolumne,Sonora,NA,NA,NA,NA,NA,NA,32
06,111,34.278058,-118.685924,1980-01-24,Parts per million,1.5227188798223703,California,Ventura,Simi Valley,NA,NA,NA,NA,NA,NA,20.333333333333332
06,113,38.672683,-121.789408,1980-01-01,Parts per million,0.8584811272328423,California,Yolo,Woodland,NA,NA,Parts per million,0.023165045038705135,NA,NA,23.666666666666668
21,117,39.085616,-84.50938699999999,1980-01-01,Parts per million,1.8452108551912567,Kentucky,Kenton,Covington,NA,NA,NA,NA,NA,NA,20
17,119,38.875881,-90.194554,1980-01-01,Parts per million,1.843607960904844,Illinois,Madison,Alton,NA,NA,NA,NA,NA,NA,13
13,121,33.752625,-84.383325,1980-01-01,Parts per million,1.6735706572568272,Georgia,Fulton,Atlanta,NA,NA,NA,NA,Parts per billion,8.441324996245894,40.333333333333336
08,123,40.41637,-104.70691,1980-01-01,Parts per million,1.708709529617946,Colorado,Weld,Greeley,NA,NA,Parts per million,0.027310358916478553,NA,NA,17.666666666666668
26,125,42.453925,-83.21937199999999,1980-01-01,Parts per million,1.607892905228758,Michigan,Oakland,Southfield,NA,NA,NA,NA,NA,NA,38.333333333333336
42,133,39.965278,-76.699444,1980-01-03,Parts per million,1.014839759142497,Pennsylvania,York,York,NA,NA,NA,NA,NA,NA,39
48,135,31.872346999999998,-102.352921,1980-01-01,Parts per million,0.3519246645962733,Texas,Ector,Odessa,Parts per billion,12.48859738271605,NA,NA,Parts per billion,1.9833938953488373,21.333333333333332
27,137,46.78362,-92.10251,1980-01-01,Parts per million,2.493858949175824,Minnesota,Saint Louis,Duluth,NA,NA,NA,NA,Parts per billion,4.878140708198838,7
27,141,45.560243,-94.1636,1980-01-01,Parts per million,1.6998638602540834,Minnesota,Sherburne,St. Cloud,NA,NA,NA,NA,NA,NA,36.666666666666664
17,143,40.695038,-89.587319,1980-01-01,Parts per million,1.94128887342611,Illinois,Peoria,Peoria,NA,NA,NA,NA,NA,NA,16.666666666666668
21,145,37.083112,-88.604492,1980-01-15,Parts per million,1.0402520917190776,Kentucky,McCracken,Paducah,NA,NA,NA,NA,NA,NA,43
26,147,42.947807999999995,-82.441581,1980-01-01,Parts per million,3.1967779615384613,Michigan,St. Clair,Port Huron,NA,NA,Parts per million,0.02186317403314917,NA,NA,45
39,151,40.79736,-81.37621,1980-01-01,Parts per million,1.0980687779527558,Ohio,Stark,Canton,Parts per billion,28.86347880952381,Parts per million,0.026692199115044248,NA,NA,48.333333333333336
19,153,41.587210999999996,-93.627439999999993,1980-01-04,Parts per million,2.2636819123461396,Iowa,Polk,Des Moines,NA,NA,NA,NA,NA,NA,49.333333333333336
47,157,35.217501,-90.019707,1980-07-01,Parts per million,1.8225462238095238,Tennessee,Shelby,Memphis,NA,NA,NA,NA,NA,NA,19.333333333333332
17,161,41.506423,-90.51263399999999,1980-01-01,Parts per million,1.6187285129682998,Illinois,Rock Island,Moline,NA,NA,NA,NA,NA,NA,5.5
17,163,38.612034,-90.160477,1980-01-01,Parts per million,1.0655022631124913,Illinois,Saint Clair,East Saint Louis,NA,NA,Parts per million,0.023545026707132016,NA,NA,43.666666666666664
29,165,39.300033,-94.700244,1980-05-02,Parts per million,2.7691836666666667,Missouri,Platte,Kansas City,NA,NA,NA,NA,NA,NA,14
17,167,39.799309,-89.64760799999999,1980-01-01,Parts per million,1.5086957764820215,Illinois,Sangamon,Springfield,NA,NA,NA,NA,NA,NA,16
20,173,37.702065999999995,-97.314847,1980-01-01,Parts per million,1.3441815490605429,Kansas,Sedgwick,Wichita,NA,NA,NA,NA,NA,NA,43.5
37,183,0,0,1980-04-28,Parts per million,2.672276973429952,North Carolina,Wake,Raleigh,NA,NA,NA,NA,NA,NA,33.333333333333336
02,185,70.263611,-148.756938,1980-01-01,Parts per million,0.18955407584269662,Alaska,North Slope,Not in a city,Parts per billion,2.72903,Parts per million,0.023162434065934066,Parts per billion,17.81317397905759,16.666666666666668
29,189,38.521718,-90.34371399999999,1980-01-01,Parts per million,1.258595209834191,Missouri,Saint Louis,Green Park,Parts per billion,23.51385422816092,Parts per million,0.026955484464902184,Parts per billion,8.536730120732575,69.66666666666667
19,193,42.351382,-96.38864099999999,1980-05-01,Parts per million,0.2863203043933054,Iowa,Woodbury,Not in a city,Parts per billion,4.905018774261603,NA,NA,Parts per billion,2.672610524742268,10.333333333333334
17,197,41.518642,-88.089503,1980-01-10,Parts per million,2.414269457983193,Illinois,Will,Joliet,NA,NA,NA,NA,NA,NA,18
48,201,29.901035999999998,-95.326137,1980-04-02,Parts per million,0.7973497939681464,Texas,Harris,Houston,NA,NA,NA,NA,NA,NA,27.333333333333332
20,209,39.11306,-94.624679,1980-01-01,Parts per million,1.3846544632564841,Kansas,Wyandotte,Kansas City,NA,NA,NA,NA,NA,NA,4
48,245,30.041667,-94.079167,1980-04-11,Parts per million,0.34874358726899385,Texas,Jefferson,Beaumont,NA,NA,NA,NA,NA,NA,18.333333333333332
48,355,27.789444,-97.43333299999999,1980-01-01,Parts per million,0.5403149390243902,Texas,Nueces,Corpus Christi,NA,NA,Parts per million,0.02692844578313253,Parts per billion,2.4278545519877675,30
48,439,32.663889,-97.10000000000001,1980-01-01,Parts per million,0.42830145875706216,Texas,Tarrant,Arlington,NA,NA,Parts per million,0.03164409940357853,NA,NA,29.666666666666668
48,453,30.238889,-97.702778,1980-04-03,Parts per million,0.4518001011904762,Texas,Travis,Austin,Parts per billion,11.772239581395349,NA,NA,NA,NA,23.666666666666668
24,510,39.299828999999995,-76.61274499999999,1980-01-01,Parts per million,1.5708922126436782,Maryland,Baltimore (City),Baltimore,NA,NA,Parts per million,0.01658253437967115,NA,NA,25
51,600,38.844834999999996,-77.311651,1980-01-01,Parts per million,0.5573637283950618,Virginia,Fairfax City,Fairfax,Parts per billion,18.406220105,Parts per million,0.024379662011173184,Parts per billion,8.21087356557377,29
51,700,37.074314,-76.494395,1980-05-01,Parts per million,1.091335603305785,Virginia,Newport News City,Newport News,NA,NA,NA,NA,NA,NA,NaN
51,710,36.850426,-76.276051,1980-01-01,Parts per million,1.2146249356725145,Virginia,Norfolk City,Norfolk,NA,NA,NA,NA,NA,NA,NaN
51,760,37.539868,-77.43414899999999,1980-02-01,Parts per million,1.71069266562986,Virginia,Richmond City,Richmond,NA,NA,NA,NA,NA,NA,19
51,810,36.890981,-76.183548,1980-02-01,Parts per million,0.7411708608562692,Virginia,Virginia Beach City,Virginia Beach,Parts per billion,17.94568514417178,NA,NA,Parts per billion,6.991871198611111,17.333333333333332
09,003,41.761210999999996,-72.678426,1980-01-01,NA,NA,Connecticut,Hartford,Hartford,Parts per billion,28.796431061403506,NA,NA,NA,NA,87
08,005,39.71721,-104.84192,1980-09-05,NA,NA,Colorado,Arapahoe,Aurora,Parts per billion,21.39218937357052,NA,NA,NA,NA,13.333333333333334
25,009,42.713147,-71.120335,1980-09-11,NA,NA,Massachusetts,Essex,Lawrence,Parts per billion,21.708333500000002,NA,NA,NA,NA,47
34,011,39.492338,-75.020453,1980-01-01,NA,NA,New Jersey,Cumberland,Vineland,Parts per billion,21.988583403936268,NA,NA,NA,NA,90.33333333333333
04,013,33.457969999999996,-112.04659,1980-04-09,NA,NA,Arizona,Maricopa,Phoenix,Parts per billion,22.566239604568164,NA,NA,NA,NA,38.666666666666664
21,015,38.91833,-84.852637,1980-07-03,NA,NA,Kentucky,Boone,Not in a city,Parts per billion,9.036938627320955,NA,NA,NA,NA,48.333333333333336
42,021,40.309722,-78.915,1980-01-01,NA,NA,Pennsylvania,Cambria,Johnstown,Parts per billion,15.277275163636363,NA,NA,NA,NA,22.666666666666668
34,023,40.482327,-74.440429,1980-01-01,NA,NA,New Jersey,Middlesex,New Brunswick,Parts per billion,24.702219950530036,NA,NA,NA,NA,25.333333333333332
24,025,39.62705,-76.32912499999999,1980-06-04,NA,NA,Maryland,Harford,Not in a city,Parts per billion,24.634627897435898,NA,NA,NA,NA,31.666666666666668
25,027,42.258704,-71.800072,1980-01-01,NA,NA,Massachusetts,Worcester,Worcester,Parts per billion,21.42966167005076,NA,NA,NA,NA,48
06,033,38.956286999999996,-122.647485,1980-06-26,NA,NA,California,Lake,Clearlake Highlands,Parts per billion,11.401723615456238,NA,NA,NA,NA,17.333333333333332
49,035,40.755278,-111.885556,1980-01-01,NA,NA,Utah,Salt Lake,Salt Lake City,Parts per billion,19.339099106557377,NA,NA,NA,NA,45.333333333333336
34,039,40.641439999999996,-74.208365,1980-02-08,NA,NA,New Jersey,Union,Elizabeth,Parts per billion,26.216565198529413,NA,NA,NA,NA,64.33333333333333
31,043,42.292215999999996,-96.42642099999999,1980-05-01,NA,NA,Nebraska,Dakota,Not in a city,Parts per billion,10.48715665497076,NA,NA,NA,NA,17.666666666666668
42,045,39.835556,-75.3725,1980-01-01,NA,NA,Pennsylvania,Delaware,Chester,Parts per billion,27.27507939344262,NA,NA,NA,NA,40.666666666666664
36,047,40.732769999999995,-73.94722,1980-01-01,NA,NA,New York,Kings,New York,Parts per billion,17.664521540650405,NA,NA,NA,NA,29
28,049,32.385731,-90.1412,1980-01-24,NA,NA,Mississippi,Hinds,Jackson,Parts per billion,20.48959949659864,NA,NA,NA,NA,24
41,051,45.522583999999995,-122.677859,1980-01-16,NA,NA,Oregon,Multnomah,Portland,Parts per billion,27.65293748013245,NA,NA,NA,NA,28.333333333333332
06,053,36.596070999999995,-121.901621,1980-01-01,NA,NA,California,Monterey,Monterey,Parts per billion,14.768530581797235,NA,NA,NA,NA,12.666666666666666
12,057,27.961132,-82.43842699999999,1980-01-08,NA,NA,Florida,Hillsborough,Tampa,Parts per billion,7.5452818166519044,NA,NA,NA,NA,28
36,061,40.739546,-73.985694,1980-05-21,NA,NA,New York,New York,New York,Parts per billion,24.87356895597105,NA,NA,NA,NA,30.666666666666668
26,063,43.853069999999995,-82.664653,1980-01-01,NA,NA,Michigan,Huron,Not in a city,Parts per billion,5.695229483013294,NA,NA,NA,NA,22
06,065,33.958348,-117.375878,1980-04-15,NA,NA,California,Riverside,Riverside,Parts per billion,29.485393076514345,NA,NA,NA,NA,35.666666666666664
06,069,36.855509999999995,-121.39299,1980-02-26,NA,NA,California,San Benito,Hollister,Parts per billion,13.58952911053316,NA,NA,NA,NA,26.666666666666668
06,071,34.89398,-117.024804,1980-05-01,NA,NA,California,San Bernardino,Barstow,Parts per billion,34.46593661584634,NA,NA,NA,NA,36
06,073,32.631242,-117.059088,1980-01-01,NA,NA,California,San Diego,Chula Vista,Parts per billion,24.233026919708028,NA,NA,NA,NA,49.666666666666664
06,077,37.848259999999996,-121.44689199999999,1980-01-01,NA,NA,California,San Joaquin,Stockton,Parts per billion,20.670329775879395,NA,NA,NA,NA,23.333333333333332
06,079,35.283864,-120.655171,1980-01-08,NA,NA,California,San Luis Obispo,San Luis Obispo,Parts per billion,21.200441046221112,NA,NA,NA,NA,13.333333333333334
06,087,36.98995,-121.925792,1980-01-01,NA,NA,California,Santa Cruz,Aptos,Parts per billion,10.255559704883227,Parts per million,0.029794181629834254,NA,NA,14
42,091,40.112221999999996,-75.309167,1980-01-01,NA,NA,Pennsylvania,Montgomery,Norristown,Parts per billion,28.650729416988415,NA,NA,NA,NA,87.33333333333333
21,093,37.757563,-85.72051599999999,1980-06-25,NA,NA,Kentucky,Hardin,Not in a city,Parts per billion,18.53039544680851,NA,NA,NA,NA,23
21,101,37.856154,-87.575290999999993,1980-01-01,NA,NA,Kentucky,Henderson,Henderson,Parts per billion,35.276876387530564,NA,NA,Parts per billion,14.54108781559694,33
01,103,34.619814,-86.997509,1980-01-01,NA,NA,Alabama,Morgan,Decatur,Parts per billion,22.199810994459835,Parts per million,0.026324383486238532,Parts per billion,7.013686159596423,66.33333333333333
55,105,42.634456,-89.030667,1980-01-01,NA,NA,Wisconsin,Rock,Avalon,Parts per billion,4.171179861167002,NA,NA,NA,NA,8.333333333333334
40,109,35.477036,-97.494309,1980-01-01,NA,NA,Oklahoma,Oklahoma,Oklahoma City,Parts per billion,19.82562711020408,NA,NA,NA,NA,32
06,111,34.274169,-119.299835,1980-01-01,NA,NA,California,Ventura,Ventura,Parts per billion,19.470966874439462,NA,NA,NA,NA,20.333333333333332
39,113,39.769200999999995,-84.211294,1980-04-21,NA,NA,Ohio,Montgomery,Dayton,Parts per billion,19.379082506294964,NA,NA,NA,NA,23.666666666666668
55,117,43.709717999999995,-87.740364,1980-01-01,NA,NA,Wisconsin,Sheboygan,Not in a city,Parts per billion,8.989285231428571,NA,NA,Parts per billion,3.975476858738135,20
05,119,34.835721,-92.260581,1980-01-01,NA,NA,Arkansas,Pulaski,North Little Rock,Parts per billion,8.328504179190752,NA,NA,Parts per billion,10.476251722152405,13
13,121,33.752625,-84.383325,1980-06-19,NA,NA,Georgia,Fulton,Atlanta,Parts per billion,32.37059669230769,NA,NA,NA,NA,40.333333333333336
27,123,45.016355,-93.181612,1980-01-01,NA,NA,Minnesota,Ramsey,Roseville,Parts per billion,24.25917429239766,NA,NA,Parts per billion,6.423382527227723,17.666666666666668
26,125,42.742809,-83.218549,1980-04-21,NA,NA,Michigan,Oakland,Not in a city,Parts per billion,15.10452545841785,NA,NA,Parts per billion,8.832328850235557,38.333333333333336
18,127,41.288373,-86.947801,1980-01-01,NA,NA,Indiana,Porter,Not in a city,Parts per billion,9.487210074452554,NA,NA,NA,NA,26.333333333333332
18,129,37.902542,-87.732798,1980-11-11,NA,NA,Indiana,Posey,Not in a city,Parts per billion,19.80610490909091,NA,NA,Parts per billion,7.062587837116155,61.666666666666664
42,133,39.965278,-76.699444,1980-01-01,NA,NA,Pennsylvania,York,York,Parts per billion,25.891797207715133,NA,NA,Parts per billion,12.397943707386364,39
48,141,31.763075999999998,-106.486712,1980-02-01,NA,NA,Texas,El Paso,El Paso,Parts per billion,23.203774467043313,NA,NA,NA,NA,36.666666666666664
40,143,36.160925999999996,-95.97833,1980-03-14,NA,NA,Oklahoma,Tulsa,Tulsa,Parts per billion,18.1041767366985,NA,NA,NA,NA,16.666666666666668
21,145,37.155887,-88.787278,1980-04-29,NA,NA,Kentucky,McCracken,Not in a city,Parts per billion,14.088880270631067,Parts per million,0.02386092,NA,NA,43
18,147,37.982552,-86.966375,1980-01-01,NA,NA,Indiana,Spencer,Not in a city,Parts per billion,9.811143698959167,NA,NA,NA,NA,45
18,153,39.208650999999996,-87.553634,1980-01-01,NA,NA,Indiana,Sullivan,Not in a city,Parts per billion,17.032484005586593,NA,NA,Parts per billion,15.045098278701717,49.333333333333336
47,157,35.048426,-90.167872,1980-01-01,NA,NA,Tennessee,Shelby,Memphis,Parts per billion,14.442840067079462,NA,NA,NA,NA,19.333333333333332
18,163,37.939485999999995,-87.683352,1980-01-01,NA,NA,Indiana,Vanderburgh,Not in a city,Parts per billion,21.80703451345962,NA,NA,NA,NA,43.666666666666664
18,167,39.302817,-87.481133,1980-01-01,NA,NA,Indiana,Vigo,Not in a city,Parts per billion,10.402493388888889,NA,NA,NA,NA,16
21,177,37.205042999999996,-86.94027299999999,1980-01-01,NA,NA,Kentucky,Muhlenberg,Not in a city,Parts per billion,7.861061166167665,Parts per million,0.02872861932938856,NA,NA,21
21,183,37.324767,-86.92860499999999,1980-01-01,NA,NA,Kentucky,Ohio,Not in a city,Parts per billion,8.070531545221844,NA,NA,Parts per billion,8.412151576120666,33.333333333333336
48,201,29.901035999999998,-95.326137,1980-01-01,NA,NA,Texas,Harris,Houston,Parts per billion,27.29638972183908,NA,NA,NA,NA,27.333333333333332
21,223,38.71006,-85.41773599999999,1980-01-01,NA,NA,Kentucky,Trimble,Not in a city,Parts per billion,11.522784768939394,NA,NA,NA,NA,27.333333333333332
48,245,30.041667,-94.079167,1980-02-07,NA,NA,Texas,Jefferson,Beaumont,Parts per billion,13.810489291666666,NA,NA,NA,NA,18.333333333333332
02,261,61.085586,-146.385353,1980-11-16,NA,NA,Alaska,Valdez-Cordova,Not in a city,Parts per billion,4.251439636619718,NA,NA,NA,NA,15.666666666666666
48,361,30.085262999999998,-93.761341,1980-04-25,NA,NA,Texas,Orange,West Orange,Parts per billion,12.71440717877095,NA,NA,NA,NA,30
48,439,32.80581,-97.356529,1980-01-01,NA,NA,Texas,Tarrant,Fort Worth,Parts per billion,19.050716291472867,NA,NA,NA,NA,29.666666666666668
24,510,39.299828999999995,-76.61274499999999,1980-06-01,NA,NA,Maryland,Baltimore (City),Baltimore,Parts per billion,31.27095870136452,NA,NA,NA,NA,25
51,760,37.539868,-77.43414899999999,1980-01-02,NA,NA,Virginia,Richmond City,Richmond,Parts per billion,30.567331957317073,NA,NA,NA,NA,19
01,001,32.42847,-86.443585,1980-04-04,NA,NA,Alabama,Autauga,Prattville,NA,NA,Parts per million,0.026062288397790054,NA,NA,41.333333333333336
04,003,31.555000000000003,-110.29,1980-05-01,NA,NA,Arizona,Cochise,Sierra Vista (Garden Canon),NA,NA,Parts per million,0.026421881690628788,NA,NA,87
04,005,35.213889,-111.61250000000001,1980-05-05,NA,NA,Arizona,Coconino,Flagstaff,NA,NA,Parts per million,0.028826427599886652,NA,NA,13.333333333333334
09,009,41.316764,-73.08733099999999,1980-04-07,NA,NA,Connecticut,New Haven,Derby (Derby-Shelton),NA,NA,Parts per million,0.02911814678362573,NA,NA,47
04,011,33.695454,-109.206112,1980-01-01,NA,NA,Arizona,Greenlee,Not in a city,NA,NA,Parts per million,0.02866077592458303,NA,NA,90.33333333333333
04,013,33.405322999999996,-112.074036,1980-05-12,NA,NA,Arizona,Maricopa,Phoenix,NA,NA,Parts per million,0.02540037184948527,NA,NA,38.666666666666664
21,015,38.91833,-84.852637,1980-05-12,NA,NA,Kentucky,Boone,Not in a city,NA,NA,Parts per million,0.028717960588235295,NA,NA,48.333333333333336
06,017,38.941575,-119.959347,1980-07-29,NA,NA,California,El Dorado,South Lake Tahoe,NA,NA,Parts per million,0.028819851687059694,NA,NA,48.333333333333336
06,021,39.520993,-122.209705,1980-01-01,NA,NA,California,Glenn,Willows,NA,NA,Parts per million,0.029764163628999595,NA,NA,22.666666666666668
30,023,46.125172,-112.94368,1980-01-02,NA,NA,Montana,Deer Lodge,Anaconda-Deer Lodge County,NA,NA,Parts per million,0.028902166507177033,NA,NA,25.333333333333332
06,025,33.019211,-115.540266,1980-04-22,NA,NA,California,Imperial,Brawley,NA,NA,Parts per million,0.032372298507462684,NA,NA,31.666666666666668
04,027,32.700509,-114.622669,1980-05-20,NA,NA,Arizona,Yuma,Yuma,NA,NA,Parts per million,0.02892975419847328,NA,NA,48
06,031,36.282171999999996,-119.645128,1980-01-01,NA,NA,California,Kings,Hanford,NA,NA,Parts per million,0.023311052480916028,NA,NA,54
06,033,38.956286999999996,-122.647485,1980-06-13,NA,NA,California,Lake,Clearlake Highlands,NA,NA,Parts per million,0.026946116099071205,NA,NA,17.333333333333332
21,035,36.733942,-88.116697,1980-02-27,NA,NA,Kentucky,Calloway,Not in a city,NA,NA,Parts per million,0.022804225416906267,NA,NA,45.333333333333336
34,039,40.604548,-74.252923,1980-06-15,NA,NA,New Jersey,Union,Linden,NA,NA,Parts per million,0.023544694527363182,NA,NA,64.33333333333333
17,043,41.854473,-88.10229,1980-01-01,NA,NA,Illinois,DuPage,Wheaton,NA,NA,Parts per million,0.025446162083936325,NA,NA,17.666666666666668
06,045,39.159337,-123.21445,1980-01-01,NA,NA,California,Mendocino,Ukiah,NA,NA,Parts per million,0.02568703682487725,NA,NA,40.666666666666664
22,047,30.200197,-91.10010299999999,1980-01-01,NA,NA,Louisiana,Iberville,Not in a city,NA,NA,Parts per million,0.028611948855989233,NA,NA,29
21,049,38.004801,-84.16798399999999,1980-03-07,NA,NA,Kentucky,Clark,Winchester,NA,NA,Parts per million,0.02335627972027972,NA,NA,24
45,051,33.704339,-78.873082,1980-04-03,NA,NA,South Carolina,Horry,Not in a city,NA,NA,Parts per million,0.03353475581395349,NA,NA,28.333333333333332
06,053,36.521905,-121.806061,1980-01-01,NA,NA,California,Monterey,Carmel Valley,NA,NA,Parts per million,0.023002756773028297,NA,NA,12.666666666666666
12,057,27.928355999999997,-82.454539,1980-01-29,NA,NA,Florida,Hillsborough,Tampa,NA,NA,Parts per million,0.026540594979647218,NA,NA,28
06,061,38.93767,-121.10492099999999,1980-01-28,NA,NA,California,Placer,Auburn,NA,NA,Parts per million,0.025168657027818446,NA,NA,30.666666666666668
26,063,43.853069999999995,-82.664653,1980-02-05,NA,NA,Michigan,Huron,Not in a city,NA,NA,Parts per million,0.028074072928176794,NA,NA,22
06,067,38.667125999999996,-121.251338,1980-01-31,NA,NA,California,Sacramento,Citrus Heights,NA,NA,Parts per million,0.022784455867433207,NA,NA,25.333333333333332
06,069,36.855509999999995,-121.39299,1980-01-01,NA,NA,California,San Benito,Hollister,NA,NA,Parts per million,0.02434608875739645,NA,NA,26.666666666666668
01,073,33.485555999999995,-86.915,1980-06-25,NA,NA,Alabama,Jefferson,Fairfield,NA,NA,Parts per million,0.03253609113693324,NA,NA,49.666666666666664
06,077,38.116586,-121.286337,1980-04-30,NA,NA,California,San Joaquin,Lodi,NA,NA,Parts per million,0.03166720694349898,NA,NA,23.333333333333332
06,079,35.67358,-120.637113,1980-06-30,NA,NA,California,San Luis Obispo,Paso Robles,NA,NA,Parts per million,0.02594289613809245,NA,NA,13.333333333333334
06,081,37.482934,-122.20337,1980-01-02,NA,NA,California,San Mateo,Redwood City,NA,NA,Parts per million,0.02158986372745491,NA,NA,25.333333333333332
06,083,34.513601,-120.006531,1980-07-02,NA,NA,California,Santa Barbara,Lompoc,NA,NA,Parts per million,0.02547395850780358,NA,NA,22
12,086,25.924539,-80.448388,1980-01-31,NA,NA,Florida,Miami-Dade,Not in a city,NA,NA,Parts per million,0.02160967028985507,NA,NA,12
20,091,38.750009,-94.83023899999999,1980-04-29,NA,NA,Kansas,Johnson,Not in a city,NA,NA,Parts per million,0.03041835846724351,NA,NA,87.33333333333333
21,093,37.757563,-85.72051599999999,1980-03-21,NA,NA,Kentucky,Hardin,Not in a city,NA,NA,Parts per million,0.02247007864302236,NA,NA,23
06,095,38.2455,-122.05390000000001,1980-07-15,NA,NA,California,Solano,Fairfield,NA,NA,Parts per million,0.023223805393586004,NA,NA,22.333333333333332
01,097,30.541055,-88.12364199999999,1980-08-28,NA,NA,Alabama,Mobile,Not in a city,NA,NA,Parts per million,0.02141116176470588,NA,NA,12.666666666666666
01,099,31.487662999999998,-87.327207,1980-04-24,NA,NA,Alabama,Monroe,Monroeville,NA,NA,Parts per million,0.024212815167682925,NA,NA,26.666666666666668
06,101,39.122113999999996,-121.60441,1980-01-01,NA,NA,California,Sutter,Yuba City,NA,NA,Parts per million,0.018832691114245414,NA,NA,33
55,105,42.500848,-89.04844299999999,1980-03-28,NA,NA,Wisconsin,Rock,Beloit,NA,NA,Parts per million,0.016108860730593606,NA,NA,8.333333333333334
27,109,44.003853,-92.414896,1980-01-01,NA,NA,Minnesota,Olmsted,Not in a city,NA,NA,Parts per million,0.026285595588235292,NA,NA,32
06,111,34.416663,-118.79426,1980-01-01,NA,NA,California,Ventura,Piru,NA,NA,Parts per million,0.03355283556851312,NA,NA,20.333333333333332
17,115,39.874204,-88.925078,1980-01-01,NA,NA,Illinois,Macon,Decatur,NA,NA,Parts per million,0.030559465587044532,NA,NA,18.5
12,117,28.746111,-81.31055599999999,1980-04-11,NA,NA,Florida,Seminole,Sanford,NA,NA,Parts per million,0.02415811137254902,NA,NA,20
05,119,34.677037,-92.335985,1980-01-01,NA,NA,Arkansas,Pulaski,Little Rock,NA,NA,Parts per million,0.026590455717761557,NA,NA,13
19,121,41.328323,-94.01689499999999,1980-01-04,NA,NA,Iowa,Madison,Not in a city,NA,NA,Parts per million,0.030304092130518233,NA,NA,40.333333333333336
01,125,33.251784,-87.44861499999999,1980-05-20,NA,NA,Alabama,Tuscaloosa,Not in a city,NA,NA,Parts per million,0.02204891420911528,NA,NA,38.333333333333336
18,127,0,0,1980-06-12,NA,NA,Indiana,Porter,Not in a city,NA,NA,Parts per million,0.026285959247648902,NA,NA,26.333333333333332
37,129,34.364167,-77.838611,1980-04-03,NA,NA,North Carolina,New Hanover,Castle Hayne,NA,NA,Parts per million,0.03439967407407407,NA,NA,61.666666666666664
51,131,37.28986,-75.971321,1980-04-01,NA,NA,Virginia,Northampton,Not in a city,NA,NA,Parts per million,0.039217338150289015,NA,NA,21
17,133,38.330608999999995,-90.15983399999999,1980-01-01,NA,NA,Illinois,Monroe,Waterloo,NA,NA,Parts per million,0.026662218073188946,NA,NA,39
39,135,39.83562,-84.720524,1980-01-01,NA,NA,Ohio,Preble,New Paris,NA,NA,Parts per million,0.029368051004636783,NA,NA,21.333333333333332
55,139,44.075817,-88.528724,1980-03-25,NA,NA,Wisconsin,Winnebago,Oshkosh,NA,NA,Parts per million,0.0290296568627451,NA,NA,0.5
18,141,41.742598,-86.11052099999999,1980-01-31,NA,NA,Indiana,St. Joseph,Granger,NA,NA,Parts per million,0.02246075920873124,NA,NA,36.666666666666664
17,143,40.687419999999996,-89.606943,1980-01-01,NA,NA,Illinois,Peoria,Peoria,NA,NA,Parts per million,0.027390372492836674,Parts per billion,7.535802478908189,16.666666666666668
19,153,41.699709999999996,-93.46687999999999,1980-01-04,NA,NA,Iowa,Polk,Not in a city,NA,NA,Parts per million,0.03131787564766839,NA,NA,49.333333333333336
47,157,35.217501,-90.019707,1980-01-01,NA,NA,Tennessee,Shelby,Memphis,NA,NA,Parts per million,0.027767138643067846,NA,NA,19.333333333333332
17,161,41.511978,-90.51430099999999,1980-01-01,NA,NA,Illinois,Rock Island,Moline,NA,NA,Parts per million,0.022030495527728084,Parts per billion,8.470406778066979,5.5
29,165,39.300033,-94.700244,1980-01-01,NA,NA,Missouri,Platte,Kansas City,NA,NA,Parts per million,0.020227122080679404,NA,NA,14
17,167,39.839493999999995,-89.636211,1980-01-01,NA,NA,Illinois,Sangamon,Springfield,NA,NA,Parts per million,0.027746954838709675,NA,NA,16
20,173,37.781400999999995,-97.337543,1980-01-01,NA,NA,Kansas,Sedgwick,Not in a city,NA,NA,Parts per million,0.026281122197309416,NA,NA,43.5
21,183,37.556162,-86.7736,1980-05-14,NA,NA,Kentucky,Ohio,Not in a city,NA,NA,Parts per million,0.030003273286467486,NA,NA,33.333333333333336
19,193,42.351382,-96.38864099999999,1980-04-30,NA,NA,Iowa,Woodbury,Not in a city,NA,NA,Parts per million,0.030700230263157893,NA,NA,10.333333333333334
17,197,41.279754,-88.221728,1980-01-03,NA,NA,Illinois,Will,Braidwood,NA,NA,Parts per million,0.022122845762711865,NA,NA,18
17,199,37.728106,-88.953682,1980-01-01,NA,NA,Illinois,Williamson,Marion,NA,NA,Parts per million,0.028000238178633976,Parts per billion,8.956742050847458,44.5
17,201,42.287189999999995,-89.077005,1980-01-09,NA,NA,Illinois,Winnebago,Rockford,NA,NA,Parts per million,0.023895611656636045,NA,NA,27.333333333333332
13,215,32.50403,-84.940209,1980-08-04,NA,NA,Georgia,Muscogee,Columbus,NA,NA,Parts per million,0.02228850185873606,NA,NA,12.5
13,223,33.959824,-84.78938199999999,1980-01-01,NA,NA,Georgia,Paulding,Not in a city,NA,NA,Parts per million,0.030984739612188363,NA,NA,27.333333333333332
48,233,36.053092,-101.284605,1980-06-30,NA,NA,Texas,Hutchinson,Not in a city,NA,NA,Parts per million,0.033051175257731956,NA,NA,6
48,245,30.041667,-94.079167,1980-02-01,NA,NA,Texas,Jefferson,Beaumont,NA,NA,Parts per million,0.02762938596491228,NA,NA,18.333333333333332
13,247,33.588544999999996,-84.069608,1980-07-23,NA,NA,Georgia,Rockdale,Conyers,NA,NA,Parts per million,0.019099101265822784,NA,NA,41
02,261,61.085586,-146.385353,1980-01-01,NA,NA,Alaska,Valdez-Cordova,Not in a city,NA,NA,Parts per million,0.024108131195335277,NA,NA,15.666666666666666
48,361,30.085262999999998,-93.761341,1980-02-23,NA,NA,Texas,Orange,West Orange,NA,NA,Parts per million,0.03221963157894737,Parts per billion,1.481143250909091,30
48,375,35.282551999999995,-101.830741,1980-07-01,NA,NA,Texas,Potter,Amarillo,NA,NA,Parts per million,0.02637868449197861,NA,NA,24
48,453,30.354436,-97.760255,1980-01-01,NA,NA,Texas,Travis,Austin,NA,NA,Parts per million,0.029586778251599145,Parts per billion,0.18534617591623037,23.666666666666668
51,550,36.666817,-76.327996,1980-04-18,NA,NA,Virginia,Chesapeake City,Chesapeake,NA,NA,Parts per million,0.04345766875,NA,NA,61.5
51,630,38.311516999999995,-77.448595,1980-04-17,NA,NA,Virginia,Fredericksburg City,Fredericksburg,NA,NA,Parts per million,0.028164415662650603,NA,NA,28
51,650,37.000983,-76.39863299999999,1980-04-09,NA,NA,Virginia,Hampton City,Hampton,NA,NA,Parts per million,0.03689231558935361,NA,NA,38
51,775,37.237635999999995,-80.052539,1980-01-01,NA,NA,Virginia,Salem City,Salem,NA,NA,Parts per million,0.023170691460055095,Parts per billion,6.392371220103986,5
51,810,36.890981,-76.183548,1980-01-01,NA,NA,Virginia,Virginia Beach City,Virginia Beach,NA,NA,Parts per million,0.025474065714285715,NA,NA,17.333333333333332
01,001,32.42847,-86.443585,1980-09-09,NA,NA,Alabama,Autauga,Prattville,NA,NA,NA,NA,Parts per billion,8.62545297585237,41.333333333333336
04,003,31.364721999999997,-109.594444,1980-01-01,NA,NA,Arizona,Cochise,Douglas,NA,NA,NA,NA,Parts per billion,12.721340860596618,87
10,005,38.651225,-75.61270499999999,1980-01-03,NA,NA,Delaware,Sussex,Seaford,NA,NA,NA,NA,Parts per billion,9.38832032566384,13.333333333333334
04,007,33.410000000000004,-110.846944,1980-01-01,NA,NA,Arizona,Gila,Miami,NA,NA,NA,NA,Parts per billion,14.170742340204823,11.333333333333334
09,009,41.310832999999995,-72.916944,1980-01-01,NA,NA,Connecticut,New Haven,New Haven,NA,NA,NA,NA,Parts per billion,12.474431440709617,47
04,011,33.089507,-109.287571,1980-01-01,NA,NA,Arizona,Greenlee,Morenci,NA,NA,NA,NA,Parts per billion,14.457355665815241,90.33333333333333
04,013,33.457969999999996,-112.04659,1980-02-01,NA,NA,Arizona,Maricopa,Phoenix,NA,NA,NA,NA,Parts per billion,6.269293196377749,38.666666666666664
21,015,39.053114,-84.882173,1980-01-01,NA,NA,Kentucky,Boone,Not in a city,NA,NA,NA,NA,Parts per billion,5.494681626244344,48.333333333333336
04,019,32.382036,-112.85745299999999,1980-01-01,NA,NA,Arizona,Pima,Ajo,NA,NA,NA,NA,Parts per billion,8.332622839046515,28
02,020,61.218892,-149.89915,1980-12-04,NA,NA,Alaska,Anchorage,Anchorage,NA,NA,NA,NA,Parts per billion,0.045833339285714286,0
04,021,32.598611,-110.633611,1980-01-01,NA,NA,Arizona,Pinal,San Manuel,NA,NA,NA,NA,Parts per billion,7.45308031779476,22.666666666666668
26,023,41.932826,-84.989966,1980-01-01,NA,NA,Michigan,Branch,Coldwater,NA,NA,NA,NA,Parts per billion,16.799740556221888,25.333333333333332
25,025,42.348873,-71.097163,1980-01-02,NA,NA,Massachusetts,Suffolk,Boston,NA,NA,NA,NA,Parts per billion,7.912641466666667,31.666666666666668
18,027,38.803103,-87.216124,1980-01-01,NA,NA,Indiana,Daviess,Not in a city,NA,NA,NA,NA,Parts per billion,11.986140997489015,48
01,033,34.720368,-87.819755,1980-01-01,NA,NA,Alabama,Colbert,Not in a city,NA,NA,NA,NA,Parts per billion,5.795328640568497,17.333333333333332
05,035,35.104814,-90.190095,1980-01-01,NA,NA,Arkansas,Crittenden,Not in a city,NA,NA,NA,NA,Parts per billion,12.300852682301333,45.333333333333336
12,039,30.669914,-84.859364,1980-01-01,NA,NA,Florida,Gadsden,Chattahoochee,NA,NA,NA,NA,Parts per billion,8.90481398753197,64.33333333333333
21,041,38.725617,-85.33079,1980-01-01,NA,NA,Kentucky,Carroll,Not in a city,NA,NA,NA,NA,Parts per billion,8.83472930774801,67.33333333333333
18,043,38.23007,-85.848297,1980-01-01,NA,NA,Indiana,Floyd,Not in a city,NA,NA,NA,NA,Parts per billion,9.22880715036301,17.666666666666668
18,045,39.964200000000005,-87.421398,1980-01-01,NA,NA,Indiana,Fountain,Not in a city,NA,NA,NA,NA,Parts per billion,8.73839099120971,40.666666666666664
28,047,30.466863999999998,-88.998924,1980-01-01,NA,NA,Mississippi,Harrison,Gulfport,NA,NA,NA,NA,Parts per billion,10.973029412176723,29
26,049,43.025027,-83.685789,1980-01-01,NA,NA,Michigan,Genesee,Flint,NA,NA,NA,NA,Parts per billion,8.296040634191176,24
13,051,32.054375,-81.123167,1980-03-17,NA,NA,Georgia,Chatham,Savannah,NA,NA,NA,NA,Parts per billion,8.922516691047619,28.333333333333332
06,053,36.697181,-121.633556,1980-07-01,NA,NA,California,Monterey,Salinas,NA,NA,NA,NA,Parts per billion,5.2387795,12.666666666666666
12,057,27.947521,-82.45315,1980-01-01,NA,NA,Florida,Hillsborough,Ruskin,NA,NA,NA,NA,Parts per billion,5.692359985792237,28
19,061,42.525558,-90.642072,1980-01-25,NA,NA,Iowa,Dubuque,Dubuque,NA,NA,NA,NA,Parts per billion,13.741714711126468,30.666666666666668
12,063,30.668249,-84.91019899999999,1980-01-01,NA,NA,Florida,Jackson,Not in a city,NA,NA,NA,NA,Parts per billion,9.032562815169236,22
06,065,33.94603,-117.40063,1980-01-01,NA,NA,California,Riverside,Riverside,NA,NA,NA,NA,Parts per billion,9.62975731820655,35.666666666666664
42,069,41.442778,-75.62305599999999,1980-01-01,NA,NA,Pennsylvania,Lackawanna,Scranton,NA,NA,NA,NA,Parts per billion,14.115553860513533,26.666666666666668
01,071,34.856747999999996,-85.73525,1980-01-01,NA,NA,Alabama,Jackson,Not in a city,NA,NA,NA,NA,Parts per billion,7.085229360782368,36
06,073,32.631231,-117.05907500000001,1980-01-01,NA,NA,California,San Diego,Chula Vista,NA,NA,NA,NA,Parts per billion,7.457882147128619,49.666666666666664
06,075,37.784,-122.42160000000001,1980-01-07,NA,NA,California,San Francisco,San Francisco,NA,NA,NA,NA,Parts per billion,1.4596543244274809,18.666666666666668
01,077,34.786755,-87.78253099999999,1980-01-01,NA,NA,Alabama,Lauderdale,Not in a city,NA,NA,NA,NA,Parts per billion,7.921777758083675,23.333333333333332
06,079,35.12692,-120.58267000000001,1980-01-01,NA,NA,California,San Luis Obispo,Arroyo Grande,NA,NA,NA,NA,Parts per billion,11.03452527531402,13.333333333333334
26,081,42.984173,-85.67133899999999,1980-04-24,NA,NA,Michigan,Kent,Grand Rapids,NA,NA,NA,NA,Parts per billion,16.196042913890636,25.333333333333332
06,083,34.513601,-120.006531,1980-01-01,NA,NA,California,Santa Barbara,Lompoc,NA,NA,NA,NA,Parts per billion,5.068318497193176,22
36,085,40.59664,-74.12525,1980-01-01,NA,NA,New York,Richmond,New York,NA,NA,NA,NA,Parts per billion,13.854111162971003,38.333333333333336
12,086,25.798709,-80.210048,1980-01-18,NA,NA,Florida,Miami-Dade,Miami,NA,NA,NA,NA,Parts per billion,2.1663653429003022,12
30,087,45.87444,-106.587246,1980-01-01,NA,NA,Montana,Rosebud,Not in a city,NA,NA,NA,NA,Parts per billion,3.9834653667883213,14
12,089,30.658552,-81.463168,1980-02-13,NA,NA,Florida,Nassau,Fernandina Beach,NA,NA,NA,NA,Parts per billion,12.743061686777274,26.333333333333332
18,091,41.701983,-86.92503099999999,1980-01-01,NA,NA,Indiana,LaPorte,Michigan City,NA,NA,NA,NA,Parts per billion,10.21356305034325,87.33333333333333
29,093,37.658080999999996,-91.115594,1980-01-02,NA,NA,Missouri,Iron,Not in a city,NA,NA,NA,NA,Parts per billion,11.535363111754966,23
06,095,38.052141999999996,-122.145799,1980-03-01,NA,NA,California,Solano,Benicia,NA,NA,NA,NA,Parts per billion,8.1824006875,22.333333333333332
01,097,30.720245,-88.058948,1980-01-01,NA,NA,Alabama,Mobile,Mobile,NA,NA,NA,NA,Parts per billion,9.738441367278288,12.666666666666666
26,105,43.943894,-86.435638,1980-01-01,NA,NA,Michigan,Mason,Ludington,NA,NA,NA,NA,Parts per billion,2.7099976032998567,8.333333333333334
12,109,29.806912999999998,-81.530636,1980-01-01,NA,NA,Florida,St. Johns,Not in a city,NA,NA,NA,NA,Parts per billion,4.2129340883518225,32
06,111,34.25239,-119.143182,1980-01-07,NA,NA,California,Ventura,Not in a city,NA,NA,NA,NA,Parts per billion,14.024298996796684,20.333333333333332
19,113,41.972778999999996,-91.669902,1980-01-01,NA,NA,Iowa,Linn,Cedar Rapids,NA,NA,NA,NA,Parts per billion,7.829243903983353,23.666666666666668
13,115,34.2605,-85.3232,1980-01-01,NA,NA,Georgia,Floyd,Not in a city,NA,NA,NA,NA,Parts per billion,7.253926038569274,18.5
13,127,31.150786999999998,-81.47704399999999,1980-01-01,NA,NA,Georgia,Glynn,Brunswick,NA,NA,NA,NA,Parts per billion,8.364391687273502,26.333333333333332
26,131,46.783556999999995,-89.563209,1980-01-01,NA,NA,Michigan,Ontonagon,Not in a city,NA,NA,NA,NA,Parts per billion,2.5552477427077602,21
19,139,41.437528,-91.075429,1980-01-10,NA,NA,Iowa,Muscatine,Muscatine,NA,NA,NA,NA,Parts per billion,6.877178018598322,0.5
18,141,41.693659,-86.236673,1980-01-01,NA,NA,Indiana,St. Joseph,South Bend,NA,NA,NA,NA,Parts per billion,5.314316737583166,36.666666666666664
21,145,37.131721,-88.81339,1980-01-01,NA,NA,Kentucky,McCracken,Not in a city,NA,NA,NA,NA,Parts per billion,8.166137013334145,43
18,147,38.022833,-86.836935,1980-01-01,NA,NA,Indiana,Spencer,Not in a city,NA,NA,NA,NA,Parts per billion,8.694942384645111,45
28,149,32.32298,-90.887216,1980-01-10,NA,NA,Mississippi,Warren,Vicksburg,NA,NA,NA,NA,Parts per billion,6.454393034542314,6
39,151,40.787558,-81.40761499999999,1980-10-01,NA,NA,Ohio,Stark,Canton,NA,NA,NA,NA,Parts per billion,24.272420342618386,48.333333333333336
39,155,41.233577,-80.817501,1980-01-01,NA,NA,Ohio,Trumbull,Warren,NA,NA,NA,NA,Parts per billion,7.8379229836309525,50
39,157,40.515342,-81.47845,1980-02-06,NA,NA,Ohio,Tuscarawas,Dover,NA,NA,NA,NA,Parts per billion,10.438298479147779,19.333333333333332
17,163,38.612034,-90.160477,1980-01-10,NA,NA,Illinois,Saint Clair,East Saint Louis,NA,NA,NA,NA,Parts per billion,10.455273894586405,43.666666666666664
18,165,39.878371,-87.40723799999999,1980-01-03,NA,NA,Indiana,Vermillion,Not in a city,NA,NA,NA,NA,Parts per billion,9.350603148371532,14
17,167,39.800613999999996,-89.591225,1980-01-01,NA,NA,Illinois,Sangamon,Springfield,NA,NA,NA,NA,Parts per billion,13.674892084431539,16
19,169,42.018875,-93.623274,1980-01-04,NA,NA,Iowa,Story,Ames,NA,NA,NA,NA,Parts per billion,2.8133487057291666,9
27,171,45.332743,-93.94192199999999,1980-01-01,NA,NA,Minnesota,Wright,Not in a city,NA,NA,NA,NA,Parts per billion,0.4699857906869525,0
18,173,37.937560999999995,-87.314173,1980-01-01,NA,NA,Indiana,Warrick,Not in a city,NA,NA,NA,NA,Parts per billion,10.24443071865308,43.5
18,177,39.813367,-84.891871,1980-01-01,NA,NA,Indiana,Wayne,Richmond,NA,NA,NA,NA,Parts per billion,9.883112129559748,21
17,179,40.665037999999996,-89.57620899999999,1980-01-01,NA,NA,Illinois,Tazewell,East Peoria,NA,NA,NA,NA,Parts per billion,8.546655930444699,13
17,197,41.530308999999995,-88.085337,1980-01-01,NA,NA,Illinois,Will,Joliet,NA,NA,NA,NA,Parts per billion,10.40076886892489,18
17,201,42.248632,-89.073161,1980-01-01,NA,NA,Illinois,Winnebago,Rockford,NA,NA,NA,NA,Parts per billion,5.0242434287663755,27.333333333333332
13,205,31.437676999999997,-84.12129499999999,1980-11-07,NA,NA,Georgia,Mitchell,Not in a city,NA,NA,NA,NA,Parts per billion,6.263575131578948,6
20,209,39.11306,-94.624679,1980-10-21,NA,NA,Kansas,Wyandotte,Kansas City,NA,NA,NA,NA,Parts per billion,8.901660472543353,4
13,215,32.49653,-84.868541,1980-08-06,NA,NA,Georgia,Muscogee,Columbus,NA,NA,NA,NA,Parts per billion,9.440866,12.5
21,221,36.790884999999996,-88.016969,1980-01-01,NA,NA,Kentucky,Trigg,Not in a city,NA,NA,NA,NA,Parts per billion,3.853516861063465,14
21,223,38.723393,-85.40440199999999,1980-01-01,NA,NA,Kentucky,Trimble,Not in a city,NA,NA,NA,NA,Parts per billion,11.985163285875705,27.333333333333332
13,245,33.39375,-82.006228,1980-01-01,NA,NA,Georgia,Richmond,Augusta,NA,NA,NA,NA,Parts per billion,7.49271872627451,18.333333333333332
02,261,61.074473999999995,-146.38535,1980-01-01,NA,NA,Alaska,Valdez-Cordova,Not in a city,NA,NA,NA,NA,Parts per billion,3.2149434695787833,15.666666666666666
13,309,32.091564999999996,-82.88875399999999,1980-05-20,NA,NA,Georgia,Wheeler,Not in a city,NA,NA,NA,NA,Parts per billion,4.937650191860466,6
48,439,32.805817999999995,-97.356568,1980-01-01,NA,NA,Texas,Tarrant,Fort Worth,NA,NA,NA,NA,Parts per billion,1.6169031367647058,29.666666666666668
24,510,39.299828999999995,-76.61274499999999,1980-06-18,NA,NA,Maryland,Baltimore (City),Baltimore,NA,NA,NA,NA,Parts per billion,14.969631711134236,25
51,520,36.605939,-82.17652199999999,1980-01-01,NA,NA,Virginia,Bristol City,Bristol,NA,NA,NA,NA,Parts per billion,6.916627567528736,75
51,550,36.807092,-76.27744,1980-01-01,NA,NA,Virginia,Chesapeake City,Chesapeake,NA,NA,NA,NA,Parts per billion,11.835878343839541,61.5
51,650,37.000983,-76.39863299999999,1980-01-01,NA,NA,Virginia,Hampton City,Hampton,NA,NA,NA,NA,Parts per billion,11.297139411202187,38
51,670,37.303481999999995,-77.281644,1980-01-02,NA,NA,Virginia,Hopewell City,Hopewell,NA,NA,NA,NA,Parts per billion,15.120982997214485,94
51,760,37.539868,-77.43414899999999,1980-09-15,NA,NA,Virginia,Richmond City,Richmond,NA,NA,NA,NA,Parts per billion,14.41594261904762,19
